C:\HARP\SOCAL_E_2018-03\SOCAL_E_63_EE\Loc\Deploy\SOCAL_E_63_EE_ttgps.txt
$GPDTM,W84,,00.0000,N,00.0000,E,,W84*41
$GPGLL,3239.4837,N,11928.6610,W,004151.00,A,A*7B
$GPZDA,004153.00,16,03,2018,07,00*6D
$GPDTM,W84,,00.0000,N,00.0000,E,,W84*41
$GPRMC,004152.00,A,3239.4838,N,11928.6603,W,1.9,45.4,160318,11.9,E,A,S*5F
$GPVTG,45.4,T,33.5,M,1.869,N,3.461,K,A*25
$GPGBS,004152.00,2.39,2.20,2.16,,5.00,0.00,12.50,1,1*53
$GPDTM,W84,,00.0000,N,00.0000,E,,W84*41
$GPGGA,004152.00,3239.4838,N,11928.6603,W,1,11,0.8,2.8,M,-36.8,M,,*52
$GPDTM,W84,,00.0000,N,00.0000,E,,W84*41
$GPGLL,3239.4838,N,11928.6603,W,004152.00,A,A*75
$GPZDA,004154.00,16,03,2018,07,00*6A
$GPDTM,W84,,00.0000,N,00.0000,E,,W84*41
$GPRMC,004153.00,A,3239.4840,N,11928.6600,W,1.8,45.7,160318,11.9,E,A,S*50
$GPVTG,45.7,T,33.8,M,1.751,N,3.243,K,A*29
$GPGBS,004153.00,2.58,2.34,2.20,,5.00,0.00,12.50,1,1*55
$GPDTM,W84,,00.0000,N,00.0000,E,,W84*41
$GPGGA,004153.00,3239.4840,N,11928.6600,W,1,11,0.8,2.8,M,-36.8,M,,*5F
$GPDTM,W84,,00.0000,N,00.0000,E,,W84*41
$GPGLL,3239.4840,N,11928.6600,W,004153.00,A,A*78
$GPZDA,004155.00,16,03,2018,07,00*6B
$GPDTM,W84,,00.0000,N,00.0000,E,,W84*41
$GPRMC,004154.00,A,3239.4842,N,11928.6600,W,1.6,45.4,160318,11.9,E,A,S*58
$GPVTG,45.4,T,33.5,M,1.638,N,3.034,K,A*2B
$GPGBS,004154.00,2.72,2.53,2.25,,5.00,0.00,12.50,1,1*5E
$GPDTM,W84,,00.0000,N,00.0000,E,,W84*41
$GPGGA,004154.00,3239.4842,N,11928.6600,W,1,11,0.8,2.8,M,-36.8,M,,*5A
$GPDTM,W84,,00.0000,N,00.0000,E,,W84*41
$GPGLL,3239.4842,N,11928.6600,W,004154.00,A,A*7D
$GPZDA,004156.00,16,03,2018,07,00*68
$GPDTM,W84,,00.0000,N,00.0000,E,,W84*41
$GPRMC,004155.00,A,3239.4845,N,11928.6600,W,1.6,44.8,160318,11.9,E,A,S*53
$GPVTG,44.8,T,32.9,M,1.588,N,2.941,K,A*29RNG: TX = 11.0 RX = 12.00 time = --.--- Sec.
$GPGBS,004155.00,2.86,2.67,2.30,,5.00,0.00,12.50,1,1*57
$GPDTM,W84,,00.0000,N,00.0000,E,,W84*41
$GPGGA,004155.00,3239.4845,N,11928.6600,W,1,11,0.8,2.8,M,-36.8,M,,*5C
$GPDTM,W84,,00.0000,N,00.0000,E,,W84*41
$GPGLL,3239.4845,N,11928.6600,W,004155.00,A,A*7B
$GPZDA,004157.00,16,03,2018,07,00*69
$GPDTM,W84,,00.0000,N,00.0000,E,,W84*41
$GPRMC,004156.00,A,3239.4851,N,11928.6598,W,1.7,42.6,160318,11.9,E,A,S*5E
$GPVTG,42.6,T,30.7,M,1.714,N,3.174,K,A*25
$GPGBS,004156.00,2.53,2.34,2.20,,5.00,0.00,12.50,1,1*5B
$GPDTM,W84,,00.0000,N,00.0000,E,,W84*41
$GPGGA,004156.00,3239.4851,N,11928.6598,W,1,11,0.8,2.7,M,-36.8,M,,*57
$GPDTM,W84,,00.0000,N,00.0000,E,,W84*41
$GPGLL,3239.4851,N,11928.6598,W,004156.00,A,A*7F
$GPZDA,004158.00,16,03,2018,07,00*66
$GPDTM,W84,,00.0000,N,00.0000,E,,W84*41
$GPRMC,004157.00,A,3239.4856,N,11928.6595,W,1.7,41.5,160318,11.9,E,A,S*55
$GPVTG,41.5,T,29.6,M,1.717,N,3.180,K,A*24
$GPGBS,004157.00,2.67,2.48,2.25,,5.00,0.00,12.50,1,1*53
$GPDTM,W84,,00.0000,N,00.0000,E,,W84*41
$GPGGA,004157.00,3239.4856,N,11928.6595,W,1,11,0.8,2.7,M,-36.8,M,,*5C
$GPDTM,W84,,00.0000,N,00.0000,E,,W84*41
$GPGLL,3239.4856,N,11928.6595,W,004157.00,A,A*74
$GPZDA,004159.00,16,03,2018,07,00*67
$GPDTM,W84,,00.0000,N,00.0000,E,,W84*41
$GPRMC,004158.00,A,3239.4859,N,11928.6594,W,1.5,41.0,160318,11.9,E,A,S*53
$GPVTG,41.0,T,29.1,M,1.528,N,2.830,K,A*2B
$GPGBS,004158.00,2.81,2.63,2.30,,5.00,0.00,12.50,1,1*59
$GPDTM,W84,,00.0000,N,00.0000,E,,W84*41
$GPGGA,004158.00,3239.4859,N,11928.6594,W,1,11,0.8,2.7,M,-36.8,M,,*5D
$GPDTM,W84,,00.0000,N,00.0000,E,,W84*41
$GPGLL,3239.4859,N,11928.6594,W,004158.00,A,A*75
$GPZDA,004200.00,16,03,2018,07,00*68
$GPDTM,W84,,00.0000,N,00.0000,E,,W84*41
$GPRMC,004159.00,A,3239.4862,N,11928.6595,W,1.4,39.9,160318,11.9,E,A,S*5C
$GPVTG,39.9,T,28.0,M,1.449,N,2.684,K,A*2A
$GPGBS,004159.00,2.95,2.77,2.34,,5.00,0.00,12.50,1,1*5C
RNG: TX = 11.0 RX = 12.00 time = 02.640 Sec.
$GPDTM,W84,,00.0000,N,00.0000,E,,W84*41
$GPGGA,004159.00,3239.4862,N,11928.6595,W,1,11,0.8,2.7,M,-36.8,M,,*55
$GPDTM,W84,,00.0000,N,00.0000,E,,W84*41
$GPGLL,3239.4862,N,11928.6595,W,004159.00,A,A*7D
$GPZDA,004201.00,16,03,2018,07,00*69
$GPDTM,W84,,00.0000,N,00.0000,E,,W84*41
$GPRMC,004200.00,A,3239.4866,N,11928.6597,W,1.6,34.6,160318,11.9,E,A,S*55
$GPVTG,34.6,T,22.7,M,1.551,N,2.872,K,A*2A
$GPGBS,004200.00,2.39,2.25,2.25,,5.00,0.00,12.50,1,1*52
$GPDTM,W84,,00.0000,N,00.0000,E,,W84*41
$GPGGA,004200.00,3239.4866,N,11928.6597,W,1,11,0.8,3.0,M,-36.8,M,,*5A
$GPDTM,W84,,00.0000,N,00.0000,E,,W84*41
$GPGLL,3239.4866,N,11928.6597,W,004200.00,A,A*74
$GPZDA,004202.00,16,03,2018,07,00*6A
$GPDTM,W84,,00.0000,N,00.0000,E,,W84*41
$GPRMC,004201.00,A,3239.4871,N,11928.6597,W,1.6,31.5,160318,11.9,E,A,S*54
$GPVTG,31.5,T,19.6,M,1.562,N,2.893,K,A*2A
$GPGBS,004201.00,2.53,2.44,2.30,,5.00,0.00,12.50,1,1*5C
$GPDTM,W84,,00.0000,N,00.0000,E,,W84*41
$GPGGA,004201.00,3239.4871,N,11928.6597,W,1,11,0.8,3.0,M,-36.8,M,,*5D
$GPDTM,W84,,00.0000,N,00.0000,E,,W84*41
$GPGLL,3239.4871,N,11928.6597,W,004201.00,A,A*73
$GPZDA,004203.00,16,03,2018,07,00*6B
$GPDTM,W84,,00.0000,N,00.0000,E,,W84*41
$GPRMC,004202.00,A,3239.4873,N,11928.6595,W,1.4,30.5,160318,11.9,E,A,S*54
$GPVTG,30.5,T,18.6,M,1.440,N,2.667,K,A*2E
$GPGBS,004202.00,2.67,2.58,2.34,,5.00,0.00,12.50,1,1*51
$GPALR,,,V,V,*64
$GPDTM,W84,,00.0000,N,00.0000,E,,W84*41
$GPGGA,004202.00,3239.4873,N,11928.6595,W,1,11,0.8,3.0,M,-36.8,M,,*5E
$GPDTM,W84,,00.0000,N,00.0000,E,,W84*41
$GPGLL,3239.4873,N,11928.6595,W,004202.00,A,A*70
$GPZDA,004204.00,16,03,2018,07,00*6C
$GPDTM,W84,,00.0000,N,00.0000,E,,W84*41
$GPRMC,004203.00,A,3239.4874,N,11928.6592,W,1.4,29.9,160318,11.9,E,A,S*51
$GPVTG,29.9,T,18.0,M,1.389,N,2.572,K,A*29
$GPGBS,004203.00,2.81,2.72,2.39,,5.00,0.00,12.50,1,1*5D
$GPDTM,W84,,00.0000,N,00.0000,E,,W84*41
$GPGGA,004203.00,3239.4874,N,11928.6592,W,1,11,0.8,3.0,M,-36.8,M,,*5F
$GPDTM,W84,,00.0000,N,00.0000,E,,W84*41
$GPGLL,3239.4874,N,11928.6592,W,004203.00,A,A*71
$GPZDA,004205.00,16,03,2018,07,00*6D
$GPDTM,W84,,00.0000,N,00.0000,E,,W84*41
$GPRMC,004204.00,A,3239.4876,N,11928.6585,W,1.6,30.5,160318,11.9,E,A,S*54
$GPVTG,30.5,T,18.6,M,1.593,N,2.950,K,A*2A
$GPGBS,004204.00,2.39,2.30,2.25,,5.00,0.00,12.50,1,1*52
$GPDTM,W84,,00.0000,N,00.0000,E,,W84*41
$GPGGA,004204.00,3239.4876,N,11928.6585,W,1,11,0.8,2.8,M,-36.8,M,,*55
$GPDTM,W84,,00.0000,N,00.0000,E,,W84*41
$GPGLL,3239.4876,N,11928.6585,W,004204.00,A,A*72
$GPZDA,004206.00,16,03,2018,07,00*6E
$GPDTM,W84,,00.0000,N,00.0000,E,,W84*41
$GPRMC,004205.00,A,3239.4880,N,11928.6579,W,1.7,29.9,160318,11.9,E,A,S*5A
$GPVTG,29.9,T,18.0,M,1.695,N,3.139,K,A*2B
$GPGBS,004205.00,2.30,2.16,2.20,,5.00,0.00,12.50,1,1*5B
$GPDTM,W84,,00.0000,N,00.0000,E,,W84*41
$GPGGA,004205.00,3239.4880,N,11928.6579,W,1,11,0.8,3.1,M,-36.8,M,,*56
$GPDTM,W84,,00.0000,N,00.0000,E,,W84*41
$GPGLL,3239.4880,N,11928.6579,W,004205.00,A,A*79
$GPZDA,004207.00,16,03,2018,07,00*6F
$GPDTM,W84,,00.0000,N,00.0000,E,,W84*41
$GPRMC,004206.00,A,3239.4883,N,11928.6577,W,1.5,29.8,160318,11.9,E,A,S*57
$GPVTG,29.8,T,17.9,M,1.532,N,2.837,K,A*24
$GPGBS,004206.00,2.48,2.34,2.25,,5.00,0.00,12.50,1,1*52
$GPDTM,W84,,00.0000,N,00.0000,E,,W84*41
$GPGGA,004206.00,3239.4883,N,11928.6577,W,1,10,0.8,2.8,M,-36.8,M,,*51
$GPDTM,W84,,00.0000,N,00.0000,E,,W84*41
$GPGLL,3239.4883,N,11928.6577,W,004206.00,A,A*77
$GPZDA,004208.00,16,03,2018,07,00*60
$GPDTM,W84,,00.0000,N,00.0000,E,,W84*41
$GPRMC,004207.00,A,3239.4884,N,11928.6575,W,1.4,29.6,160318,11.9,E,A,S*5C
$GPVTG,29.6,T,17.7,M,1.358,N,2.515,K,A*23
$GPGBS,004207.00,2.63,2.53,2.30,,5.00,0.00,12.50,1,1*5F
$GPDTM,W84,,00.0000,N,00.0000,E,,W84*41
$GPGGA,004207.00,3239.4884,N,11928.6575,W,1,10,0.8,2.8,M,-36.8,M,,*55
$GPDTM,W84,,00.0000,N,00.0000,E,,W84*41
$GPGLL,3239.4884,N,11928.6575,W,004207.00,A,A*73
$GPZDA,004209.00,16,03,2018,07,00*61
$GPDTM,W84,,00.0000,N,00.0000,E,,W84*41
$GPRMC,004208.00,A,3239.4885,N,11928.6573,W,1.3,29.6,160318,11.9,E,A,S*53
$GPVTG,29.6,T,17.7,M,1.264,N,2.341,K,A*2A
$GPGBS,004208.00,2.77,2.67,2.34,,5.00,0.00,12.50,1,1*56
$GPDTM,W84,,00.0000,N,00.0000,E,,W84*41
$GPGGA,004208.00,3239.4885,N,11928.6573,W,1,10,0.8,2.8,M,-36.8,M,,*5D
$GPDTM,W84,,00.0000,N,00.0000,E,,W84*41
$GPGLL,3239.4885,N,11928.6573,W,004208.00,A,A*7B
$GPZDA,004210.00,16,03,2018,07,00*69
$GPDTM,W84,,00.0000,N,00.0000,E,,W84*41
$GPRMC,004209.00,A,3239.4885,N,11928.6569,W,1.3,30.5,160318,11.9,E,A,S*52
$GPVTG,30.5,T,18.6,M,1.292,N,2.393,K,A*29
$GPGBS,004209.00,2.91,2.81,2.39,,5.00,0.00,12.50,1,1*5A
$GPDTM,W84,,00.0000,N,00.0000,E,,W84*41
$GPGGA,004209.00,3239.4885,N,11928.6569,W,1,10,0.8,2.8,M,-36.8,M,,*57
$GPDTM,W84,,00.0000,N,00.0000,E,,W84*41
$GPGLL,3239.4885,N,11928.6569,W,004209.00,A,A*71
$GPZDA,004211.00,16,03,2018,07,00*68
$GPDTM,W84,,00.0000,N,00.0000,E,,W84*41
$GPRMC,004210.00,A,3239.4887,N,11928.6565,W,1.3,31.0,160318,11.9,E,A,S*50
$GPVTG,31.0,T,19.1,M,1.318,N,2.441,K,A*20
$GPGBS,004210.00,3.05,2.95,2.44,,5.00,0.00,12.50,1,1*51
$GPPOS,GP,01,A,0.0,0.0,0.0,A,30.0,100.0,R*03
$GPDTM,W84,,00.0000,N,00.0000,E,,W84*41
$GPGGA,004210.00,3239.4887,N,11928.6565,W,1,10,0.8,2.8,M,-36.8,M,,*51
$GPDTM,W84,,00.0000,N,00.0000,E,,W84*41
$GPZDA,004212.00,16,03,2018,07,00*6B
$GPDTM,W84,,00.0000,N,00.0000,E,,W84*41
$GPRMC,004211.00,A,3239.4893,N,11928.6562,W,1.5,30.9,160318,11.9,E,A,S*5D
$GPDTM,W84,,00.0000,N,00.0000,E,,W84*41
$GPGLL,3239.4893,N,11928.6562,W,004211.00,A,A*74
$GPVTG,30.9,T,19.0,M,1.463,N,2.709,K,A*2D
$GPGBS,004211.00,2.53,2.20,2.34,,5.00,0.00,12.50,1,1*5B
$GPDTM,W84,,00.0000,N,00.0000,E,,W84*41
$GPGGA,004211.00,3239.4893,N,11928.6562,W,1,10,0.8,3.0,M,-36.8,M,,*5B
$GPZDA,004213.00,16,03,2018,07,00*6A
$GPDTM,W84,,00.0000,N,00.0000,E,,W84*41
$GPRMC,004212.00,A,3239.4898,N,11928.6560,W,1.4,30.2,160318,11.9,E,A,S*5D
$GPVTG,30.2,T,18.3,M,1.440,N,2.667,K,A*2C
$GPGBS,004212.00,2.67,2.39,2.39,,5.00,0.00,12.50,1,1*5A
$GPDTM,W84,,00.0000,N,00.0000,E,,W84*41
$GPGGA,004212.00,3239.4898,N,11928.6560,W,1,10,0.8,3.0,M,-36.8,M,,*51
$GPDTM,W84,,00.0000,N,00.0000,E,,W84*41
$GPGLL,3239.4898,N,11928.6560,W,004212.00,A,A*7E
$GPZDA,004214.00,16,03,2018,07,00*6D
$GPDTM,W84,,00.0000,N,00.0000,E,,W84*41
$GPRMC,004213.00,A,3239.4901,N,11928.6561,W,1.4,29.1,160318,11.9,E,A,S*57
$GPVTG,29.1,T,17.2,M,1.359,N,2.517,K,A*22
$GPGBS,004213.00,2.81,2.53,2.44,,5.00,0.00,12.50,1,1*55
$GPDTM,W84,,00.0000,N,00.0000,E,,W84*41
$GPGGA,004213.00,3239.4901,N,11928.6561,W,1,10,0.8,3.0,M,-36.8,M,,*50
$GPDTM,W84,,00.0000,N,00.0000,E,,W84*41
$GPGLL,3239.4901,N,11928.6561,W,004213.00,A,A*7F
$GPZDA,004215.00,16,03,2018,07,00*6C
$GPDTM,W84,,00.0000,N,00.0000,E,,W84*41
$GPRMC,004214.00,A,3239.4905,N,11928.6558,W,1.5,28.9,160318,11.9,E,A,S*56
$GPVTG,28.9,T,17.0,M,1.507,N,2.791,K,A*28
$GPGBS,004214.00,2.44,2.16,2.30,,5.00,0.00,12.50,1,1*59
$GPDTM,W84,,00.0000,N,00.0000,E,,W84*41
$GPGGA,004214.00,3239.4905,N,11928.6558,W,1,10,0.8,2.5,M,-36.8,M,,*5D
$GPDTM,W84,,00.0000,N,00.0000,E,,W84*41
$GPGLL,3239.4905,N,11928.6558,W,004214.00,A,A*76
$GPZDA,004216.00,16,03,2018,07,00*6F
$GPDTM,W84,,00.0000,N,00.0000,E,,W84*41
$GPRMC,004215.00,A,3239.4911,N,11928.6550,W,1.8,33.8,160318,11.9,E,A,S*5C
$GPVTG,33.8,T,21.9,M,1.815,N,3.361,K,A*2B
$GPGBS,004215.00,2.16,1.97,2.20,,5.00,0.00,12.50,1,1*54
$GPDTM,W84,,00.0000,N,00.0000,E,,W84*41
$GPGGA,004215.00,3239.4911,N,11928.6550,W,1,10,0.8,3.0,M,-36.8,M,,*55
$GPDTM,W84,,00.0000,N,00.0000,E,,W84*41
$GPGLL,3239.4911,N,11928.6550,W,004215.00,A,A*7A
$GPZDA,004217.00,16,03,2018,07,00*6E
$GPDTM,W84,,00.0000,N,00.0000,E,,W84*41
$GPRMC,004216.00,A,3239.4915,N,11928.6541,W,1.8,36.4,160318,11.9,E,A,S*52
$GPVTG,36.4,T,24.5,M,1.839,N,3.406,K,A*23
$GPGBS,004216.00,2.06,2.02,2.20,,5.00,0.00,12.50,1,1*59
$GPDTM,W84,,00.0000,N,00.0000,E,,W84*41
$GPGGA,004216.00,3239.4915,N,11928.6541,W,1,10,0.8,3.8,M,-36.8,M,,*5A
$GPDTM,W84,,00.0000,N,00.0000,E,,W84*41
$GPGLL,3239.4915,N,11928.6541,W,004216.00,A,A*7D
$GPZDA,004218.00,16,03,2018,07,00*61
$GPDTM,W84,,00.0000,N,00.0000,E,,W84*41
$GPRMC,004217.00,A,3239.4919,N,11928.6542,W,2.0,33.1,160318,11.9,E,A,S*57
$GPVTG,33.1,T,21.2,M,1.956,N,3.623,K,A*2C
$GPGBS,004217.00,2.11,2.11,2.20,,5.00,0.00,12.50,1,1*5C
$GPDTM,W84,,00.0000,N,00.0000,E,,W84*41
$GPGGA,004217.00,3239.4919,N,11928.6542,W,1,10,0.8,3.9,M,-36.8,M,,*55
$GPDTM,W84,,00.0000,N,00.0000,E,,W84*41
$GPGLL,3239.4919,N,11928.6542,W,004217.00,A,A*73
$GPZDA,004219.00,16,03,2018,07,00*60
$GPDTM,W84,,00.0000,N,00.0000,E,,W84*41
$GPRMC,004218.00,A,3239.4923,N,11928.6550,W,1.9,26.3,160318,11.9,E,A,S*5E
$GPVTG,26.3,T,14.4,M,1.917,N,3.550,K,A*28
$GPGBS,004218.00,1.97,2.06,2.16,,5.00,0.00,12.50,1,1*5D
$GPDTM,W84,,00.0000,N,00.0000,E,,W84*41
$GPGGA,004218.00,3239.4923,N,11928.6550,W,1,10,0.8,3.0,M,-36.8,M,,*59
$GPDTM,W84,,00.0000,N,00.0000,E,,W84*41
$GPGLL,3239.4923,N,11928.6550,W,004218.00,A,A*76
$GPZDA,004220.00,16,03,2018,07,00*6A
$GPDTM,W84,,00.0000,N,00.0000,E,,W84*41
$GPRMC,004219.00,A,3239.4926,N,11928.6553,W,1.7,23.4,160318,11.9,E,A,S*55
$GPVTG,23.4,T,11.5,M,1.745,N,3.232,K,A*24
$GPGBS,004219.00,2.20,2.25,2.20,,5.00,0.00,12.50,1,1*57
$GPDTM,W84,,00.0000,N,00.0000,E,,W84*41
$GPGGA,004219.00,3239.4926,N,11928.6553,W,1,10,0.8,2.4,M,-36.8,M,,*5B
$GPDTM,W84,,00.0000,N,00.0000,E,,W84*41
$GPGLL,3239.4926,N,11928.6553,W,004219.00,A,A*71
$GPZDA,004221.00,16,03,2018,07,00*6B
$GPDTM,W84,,00.0000,N,00.0000,E,,W84*41
$GPRMC,004220.00,A,3239.4930,N,11928.6549,W,1.9,24.9,160318,11.9,E,A,S*57
$GPVTG,24.9,T,13.0,M,1.915,N,3.547,K,A*27
$GPGBS,004220.00,2.20,2.20,2.20,,5.00,0.00,12.50,1,1*58
$GPDTM,W84,,00.0000,N,00.0000,E,,W84*41
$GPGGA,004220.00,3239.4930,N,11928.6549,W,1,10,0.8,2.9,M,-36.8,M,,*50
$GPDTM,W84,,00.0000,N,00.0000,E,,W84*41
$GPGLL,3239.4930,N,11928.6549,W,004220.00,A,A*77
$GPZDA,004222.00,16,03,2018,07,00*68
$GPDTM,W84,,00.0000,N,00.0000,E,,W84*41
$GPRMC,004221.00,A,3239.4934,N,11928.6539,W,2.1,31.5,160318,11.9,E,A,S*56
$GPVTG,31.5,T,19.6,M,2.093,N,3.876,K,A*28
$GPGBS,004221.00,2.16,2.11,2.16,,5.00,0.00,12.50,1,1*5B
$GPDTM,W84,,00.0000,N,00.0000,E,,W84*41
$GPGGA,004221.00,3239.4934,N,11928.6539,W,1,10,0.8,3.6,M,-36.8,M,,*5C
$GPDTM,W84,,00.0000,N,00.0000,E,,W84*41
$GPGLL,3239.4934,N,11928.6539,W,004221.00,A,A*75
$GPZDA,004223.00,16,03,2018,07,00*69
$GPDTM,W84,,00.0000,N,00.0000,E,,W84*41
$GPRMC,004222.00,A,3239.4937,N,11928.6533,W,1.8,32.6,160318,11.9,E,A,S*56
$GPVTG,32.6,T,20.7,M,1.843,N,3.413,K,A*2A
$GPGBS,004222.00,2.34,2.30,2.20,,5.00,0.00,12.50,1,1*5E
$GPDTM,W84,,00.0000,N,00.0000,E,,W84*41
$GPGGA,004222.00,3239.4937,N,11928.6533,W,1,10,0.8,3.9,M,-36.8,M,,*59
$GPDTM,W84,,00.0000,N,00.0000,E,,W84*41
$GPGLL,3239.4937,N,11928.6533,W,004222.00,A,A*7F
$GPZDA,004224.00,16,03,2018,07,00*6E
$GPDTM,W84,,00.0000,N,00.0000,E,,W84*41
$GPRMC,004223.00,A,3239.4940,N,11928.6534,W,1.9,30.9,160318,11.9,E,A,S*5C
$GPVTG,30.9,T,19.0,M,1.906,N,3.530,K,A*2A
$GPGBS,004223.00,2.16,2.11,2.16,,5.00,0.00,12.50,1,1*59
$GPDTM,W84,,00.0000,N,00.0000,E,,W84*41
$GPGGA,004223.00,3239.4940,N,11928.6534,W,1,10,0.8,4.0,M,-36.8,M,,*51
$GPDTM,W84,,00.0000,N,00.0000,E,,W84*41
$GPGLL,3239.4940,N,11928.6534,W,004223.00,A,A*79
$GPZDA,004225.00,16,03,2018,07,00*6F
$GPDTM,W84,,00.0000,N,00.0000,E,,W84*41
$GPRMC,004224.00,A,3239.4945,N,11928.6537,W,1.9,25.7,160318,11.9,E,A,S*57
$GPVTG,25.7,T,13.8,M,1.944,N,3.600,K,A*24
$GPGBS,004224.00,2.11,1.88,2.16,,5.00,0.00,12.50,1,1*5A
$GPDTM,W84,,00.0000,N,00.0000,E,,W84*41
$GPGGA,004224.00,3239.4945,N,11928.6537,W,1,10,0.8,4.3,M,-36.8,M,,*53
$GPDTM,W84,,00.0000,N,00.0000,E,,W84*41
$GPGLL,3239.4945,N,11928.6537,W,004224.00,A,A*78
$GPZDA,004226.00,16,03,2018,07,00*6C
$GPDTM,W84,,00.0000,N,00.0000,E,,W84*41
$GPRMC,004225.00,A,3239.4950,N,11928.6535,W,2.0,24.6,160318,11.9,E,A,S*5A
$GPVTG,24.6,T,12.7,M,2.015,N,3.732,K,A*24
$GPGBS,004225.00,2.20,1.97,2.11,,5.00,0.00,12.50,1,1*50
$GPDTM,W84,,00.0000,N,00.0000,E,,W84*41
$GPGGA,004225.00,3239.4950,N,11928.6535,W,1,10,0.8,3.7,M,-36.8,M,,*57
$GPDTM,W84,,00.0000,N,00.0000,E,,W84*41
$GPGLL,3239.4950,N,11928.6535,W,004225.00,A,A*7F
$GPZDA,004227.00,16,03,2018,07,00*6D
$GPDTM,W84,,00.0000,N,00.0000,E,,W84*41
$GPRMC,004226.00,A,3239.4955,N,11928.6525,W,2.3,29.9,160318,11.9,E,A,S*5C
$GPVTG,29.9,T,18.0,M,2.276,N,4.215,K,A*2B
$GPGBS,004226.00,2.11,1.92,2.11,,5.00,0.00,12.50,1,1*54
RNG: TX = 11.0 RX = 12.00 time = 01.767 Sec.
$GPDTM,W84,,00.0000,N,00.0000,E,,W84*41
$GPGGA,004226.00,3239.4955,N,11928.6525,W,1,10,0.8,3.2,M,-36.8,M,,*55
$GPDTM,W84,,00.0000,N,00.0000,E,,W84*41
$GPGLL,3239.4955,N,11928.6525,W,004226.00,A,A*78
$GPZDA,004228.00,16,03,2018,07,00*62
$GPDTM,W84,,00.0000,N,00.0000,E,,W84*41
$GPRMC,004227.00,A,3239.4958,N,11928.6518,W,2.1,31.1,160318,11.9,E,A,S*5D
$GPVTG,31.1,T,19.2,M,2.098,N,3.885,K,A*2F
$GPGBS,004227.00,2.30,2.11,2.16,,5.00,0.00,12.50,1,1*59
$GPDTM,W84,,00.0000,N,00.0000,E,,W84*41
$GPGGA,004227.00,3239.4958,N,11928.6518,W,1,10,0.8,3.0,M,-36.8,M,,*55
$GPDTM,W84,,00.0000,N,00.0000,E,,W84*41
$GPGLL,3239.4958,N,11928.6518,W,004227.00,A,A*7A
$GPZDA,004229.00,16,03,2018,07,00*63
$GPDTM,W84,,00.0000,N,00.0000,E,,W84*41
$GPRMC,004228.00,A,3239.4960,N,11928.6523,W,2.2,24.8,160318,11.9,E,A,S*5F
$GPVTG,24.8,T,12.9,M,2.242,N,4.152,K,A*23
$GPGBS,004228.00,2.30,2.02,2.11,,5.00,0.00,12.50,1,1*53
$GPDTM,W84,,00.0000,N,00.0000,E,,W84*41
$GPGGA,004228.00,3239.4960,N,11928.6523,W,1,10,0.8,3.1,M,-36.8,M,,*58
$GPDTM,W84,,00.0000,N,00.0000,E,,W84*41
$GPGLL,3239.4960,N,11928.6523,W,004228.00,A,A*76
$GPZDA,004230.00,16,03,2018,07,00*6B
$GPDTM,W84,,00.0000,N,00.0000,E,,W84*41
$GPRMC,004229.00,A,3239.4961,N,11928.6530,W,2.0,22.3,160318,11.9,E,A,S*52
$GPVTG,22.3,T,10.4,M,2.033,N,3.765,K,A*20
$GPGBS,004229.00,2.48,2.25,2.20,,5.00,0.00,12.50,1,1*5A
$GPDTM,W84,,00.0000,N,00.0000,E,,W84*41
$GPGGA,004229.00,3239.4961,N,11928.6530,W,1,10,0.8,3.1,M,-36.8,M,,*5A
$GPDTM,W84,,00.0000,N,00.0000,E,,W84*41
$GPGLL,3239.4961,N,11928.6530,W,004229.00,A,A*74
$GPZDA,004231.00,16,03,2018,07,00*6A
$GPDTM,W84,,00.0000,N,00.0000,E,,W84*41
$GPRMC,004230.00,A,3239.4962,N,11928.6525,W,2.2,25.4,160318,11.9,E,A,S*5F
$GPVTG,25.4,T,13.5,M,2.191,N,4.058,K,A*25
$GPGBS,004230.00,2.44,2.06,2.16,,5.00,0.00,12.50,1,1*5A
$GPHBT,50,A,4*15
$GPDTM,W84,,00.0000,N,00.0000,E,,W84*41
$GPGGA,004230.00,3239.4962,N,11928.6525,W,1,10,0.8,3.9,M,-36.8,M,,*5D
$GPDTM,W84,,00.0000,N,00.0000,E,,W84*41
$GPGLL,3239.4962,N,11928.6525,W,004230.00,A,A*7B
$GPZDA,004232.00,16,03,2018,07,00*69
$GPDTM,W84,,00.0000,N,00.0000,E,,W84*41
$GPRMC,004231.00,A,3239.4964,N,11928.6515,W,2.3,30.7,160318,11.9,E,A,S*5D
$GPVTG,30.7,T,18.8,M,2.300,N,4.260,K,A*27
$GPGBS,004231.00,2.34,1.88,2.11,,5.00,0.00,12.50,1,1*5E
$GPDTM,W84,,00.0000,N,00.0000,E,,W84*41
$GPGGA,004231.00,3239.4964,N,11928.6515,W,1,10,0.8,4.1,M,-36.8,M,,*56
$GPDTM,W84,,00.0000,N,00.0000,E,,W84*41
$GPGLL,3239.4964,N,11928.6515,W,004231.00,A,A*7F
$GPZDA,004233.00,16,03,2018,07,00*68
$GPDTM,W84,,00.0000,N,00.0000,E,,W84*41
$GPRMC,004232.00,A,3239.4966,N,11928.6510,W,2.1,32.0,160318,11.9,E,A,S*5E
$GPVTG,32.0,T,20.1,M,2.052,N,3.800,K,A*2F
$GPGBS,004232.00,2.53,2.11,2.16,,5.00,0.00,12.50,1,1*58
$GPALR,,,V,V,*64
$GPDTM,W84,,00.0000,N,00.0000,E,,W84*41
$GPGGA,004232.00,3239.4966,N,11928.6510,W,1,10,0.8,3.8,M,-36.8,M,,*5C
$GPDTM,W84,,00.0000,N,00.0000,E,,W84*41
$GPGLL,3239.4966,N,11928.6510,W,004232.00,A,A*7B
$GPZDA,004234.00,16,03,2018,07,00*6F
$GPDTM,W84,,00.0000,N,00.0000,E,,W84*41
$GPRMC,004233.00,A,3239.4967,N,11928.6511,W,1.9,33.1,160318,11.9,E,A,S*54
$GPVTG,33.1,T,21.2,M,1.868,N,3.460,K,A*25
$GPGBS,004233.00,2.67,2.30,2.20,,5.00,0.00,12.50,1,1*58
$GPDTM,W84,,00.0000,N,00.0000,E,,W84*41
$GPGGA,004233.00,3239.4967,N,11928.6511,W,1,10,0.8,3.9,M,-36.8,M,,*5C
$GPDTM,W84,,00.0000,N,00.0000,E,,W84*41
$GPGLL,3239.4967,N,11928.6511,W,004233.00,A,A*7A
$GPZDA,004235.00,16,03,2018,07,00*6E
$GPDTM,W84,,00.0000,N,00.0000,E,,W84*41
$GPRMC,004234.00,A,3239.4969,N,11928.6511,W,1.8,34.3,160318,11.9,E,A,S*59
$GPVTG,34.3,T,22.4,M,1.784,N,3.304,K,A*2D
$GPGBS,004234.00,2.81,2.44,2.25,,5.00,0.00,12.50,1,1*51
$GPDTM,W84,,00.0000,N,00.0000,E,,W84*41
RNG: TX = 11.0 RX = 12.00 time = 01.766 Sec.
$GPGGA,004234.00,3239.4969,N,11928.6511,W,1,10,0.8,3.9,M,-36.8,M,,*55
$GPDTM,W84,,00.0000,N,00.0000,E,,W84*41
$GPGLL,3239.4969,N,11928.6511,W,004234.00,A,A*73
$GPZDA,004236.00,16,03,2018,07,00*6D
$GPDTM,W84,,00.0000,N,00.0000,E,,W84*41
$GPRMC,004235.00,A,3239.4974,N,11928.6507,W,1.9,35.8,160318,11.9,E,A,S*58
$GPVTG,35.8,T,23.9,M,1.867,N,3.458,K,A*27
$GPGBS,004235.00,2.67,2.30,2.25,,5.00,0.00,12.50,1,1*5B
$GPDTM,W84,,00.0000,N,00.0000,E,,W84*41
$GPGGA,004235.00,3239.4974,N,11928.6507,W,1,10,0.8,4.3,M,-36.8,M,,*52
$GPDTM,W84,,00.0000,N,00.0000,E,,W84*41
$GPGLL,3239.4974,N,11928.6507,W,004235.00,A,A*79
$GPZDA,004237.00,16,03,2018,07,00*6C
$GPDTM,W84,,00.0000,N,00.0000,E,,W84*41
$GPRMC,004236.00,A,3239.4978,N,11928.6502,W,1.8,36.7,160318,11.9,E,A,S*5F
$GPVTG,36.7,T,24.8,M,1.835,N,3.398,K,A*21
$GPGBS,004236.00,2.81,2.44,2.30,,5.00,0.00,12.50,1,1*57
$GPDTM,W84,,00.0000,N,00.0000,E,,W84*41
$GPGGA,004236.00,3239.4978,N,11928.6502,W,1,10,0.8,4.3,M,-36.8,M,,*58
$GPDTM,W84,,00.0000,N,00.0000,E,,W84*41
$GPGLL,3239.4978,N,11928.6502,W,004236.00,A,A*73
$GPZDA,004238.00,16,03,2018,07,00*63
$GPDTM,W84,,00.0000,N,00.0000,E,,W84*41
$GPRMC,004237.00,A,3239.4982,N,11928.6499,W,1.8,37.1,160318,11.9,E,A,S*5F
$GPVTG,37.1,T,25.2,M,1.755,N,3.250,K,A*21
$GPGBS,004237.00,2.95,2.63,2.34,,5.00,0.00,12.50,1,1*52
$GPDTM,W84,,00.0000,N,00.0000,E,,W84*41
$GPGGA,004237.00,3239.4982,N,11928.6499,W,1,10,0.8,4.3,M,-36.8,M,,*5F
$GPDTM,W84,,00.0000,N,00.0000,E,,W84*41
$GPGLL,3239.4982,N,11928.6499,W,004237.00,A,A*74
$GPZDA,004239.00,16,03,2018,07,00*62
$GPDTM,W84,,00.0000,N,00.0000,E,,W84*41
$GPRMC,004238.00,A,3239.4985,N,11928.6497,W,1.7,37.5,160318,11.9,E,A,S*52
$GPVTG,37.5,T,25.6,M,1.663,N,3.080,K,A*2A
$GPGBS,004238.00,3.09,2.77,2.39,,5.00,0.00,12.50,1,1*51
$GPDTM,W84,,00.0000,N,00.0000,E,,W84*41
$GPGGA,004238.00,3239.4985,N,11928.6497,W,1,10,0.8,4.3,M,-36.8,M,,*59
$GPDTM,W84,,00.0000,N,00.0000,E,,W84*41
$GPGLL,3239.4985,N,11928.6497,W,004238.00,A,A*72
$GPZDA,004240.00,16,03,2018,07,00*6C
$GPDTM,W84,,00.0000,N,00.0000,E,,W84*41
$GPRMC,004239.00,A,3239.4987,N,11928.6495,W,1.6,37.8,160318,11.9,E,A,S*5F
$GPVTG,37.8,T,25.9,M,1.603,N,2.969,K,A*21
$GPGBS,004239.00,3.23,2.91,2.39,,5.00,0.00,12.50,1,1*50
$GPDTM,W84,,00.0000,N,00.0000,E,,W84*41
$GPGGA,004239.00,3239.4987,N,11928.6495,W,1,08,1.0,4.3,M,-36.8,M,,*58
$GPDTM,W84,,00.0000,N,00.0000,E,,W84*41
$GPGLL,3239.4987,N,11928.6495,W,004239.00,A,A*73
$GPZDA,004241.00,16,03,2018,07,00*6D
$GPDTM,W84,,00.0000,N,00.0000,E,,W84*41
$GPRMC,004240.00,A,3239.4991,N,11928.6494,W,1.5,38.0,160318,11.9,E,A,S*53
$GPVTG,38.0,T,26.1,M,1.528,N,2.830,K,A*2A
$GPGBS,004240.00,3.33,3.05,2.44,,5.00,0.00,12.50,1,1*59
$GPPOS,GP,01,A,0.0,0.0,0.0,A,30.0,100.0,R*03
$GPDTM,W84,,00.0000,N,00.0000,E,,W84*41
$GPGGA,004240.00,3239.4991,N,11928.6494,W,1,10,0.8,4.3,M,-36.8,M,,*50
$GPDTM,W84,,00.0000,N,00.0000,E,,W84*41
$GPZDA,004242.00,16,03,2018,07,00*6E
$GPDTM,W84,,00.0000,N,00.0000,E,,W84*41
$GPRMC,004241.00,A,3239.4993,N,11928.6493,W,1.4,38.2,160318,11.9,E,A,S*54
$GPDTM,W84,,00.0000,N,00.0000,E,,W84*41
$GPGLL,3239.4993,N,11928.6493,W,004241.00,A,A*7F
$GPVTG,38.2,T,26.3,M,1.406,N,2.604,K,A*2E
$GPGBS,004241.00,3.47,3.19,2.48,,5.00,0.00,12.50,1,1*5A
$GPDTM,W84,,00.0000,N,00.0000,E,,W84*41
$GPGGA,004241.00,3239.4993,N,11928.6493,W,1,10,0.8,4.3,M,-36.8,M,,*54
$GPZDA,004243.00,16,03,2018,07,00*6F
$GPDTM,W84,,00.0000,N,00.0000,E,,W84*41
$GPRMC,004242.00,A,3239.4993,N,11928.6485,W,1.6,44.1,160318,11.9,E,A,S*5A
$GPVTG,44.1,T,32.2,M,1.640,N,3.037,K,A*25
$GPGBS,004242.00,3.05,2.48,2.39,,5.00,0.00,12.50,1,1*5C
$GPDTM,W84,,00.0000,N,00.0000,E,,W84*41
$GPGGA,004242.00,3239.4993,N,11928.6485,W,1,10,0.8,4.8,M,-36.8,M,,*5B
$GPDTM,W84,,00.0000,N,00.0000,E,,W84*41
$GPGLL,3239.4993,N,11928.6485,W,004242.00,A,A*7B
$GPZDA,004244.00,16,03,2018,07,00*68
$GPDTM,W84,,00.0000,N,00.0000,E,,W84*41
$GPRMC,004243.00,A,3239.4993,N,11928.6472,W,2.0,55.3,160318,11.9,E,A,S*54
$GPVTG,55.3,T,43.4,M,1.978,N,3.663,K,A*24
$GPGBS,004243.00,2.67,2.11,2.34,,5.00,0.00,12.50,1,1*59
$GPDTM,W84,,00.0000,N,00.0000,E,,W84*41
$GPGGA,004243.00,3239.4993,N,11928.6472,W,1,10,0.8,5.0,M,-36.8,M,,*5B
$GPDTM,W84,,00.0000,N,00.0000,E,,W84*41
$GPGLL,3239.4993,N,11928.6472,W,004243.00,A,A*72
$GPZDA,004245.00,16,03,2018,07,00*69
$GPDTM,W84,,00.0000,N,00.0000,E,,W84*41
$GPRMC,004244.00,A,3239.4995,N,11928.6462,W,1.9,58.6,160318,11.9,E,A,S*56
$GPVTG,58.6,T,46.7,M,1.921,N,3.558,K,A*2D
$GPGBS,004244.00,2.81,2.30,2.39,,5.00,0.00,12.50,1,1*58
$GPDTM,W84,,00.0000,N,00.0000,E,,W84*41
$GPGGA,004244.00,3239.4995,N,11928.6462,W,1,10,0.8,5.1,M,-36.8,M,,*5A
$GPDTM,W84,,00.0000,N,00.0000,E,,W84*41
$GPGLL,3239.4995,N,11928.6462,W,004244.00,A,A*72
$GPZDA,004246.00,16,03,2018,07,00*6A
$GPDTM,W84,,00.0000,N,00.0000,E,,W84*41
$GPRMC,004245.00,A,3239.4998,N,11928.6459,W,1.9,60.8,160318,11.9,E,A,S*57
$GPVTG,60.8,T,48.9,M,1.913,N,3.543,K,A*23
$GPGBS,004245.00,2.95,2.48,2.44,,5.00,0.00,12.50,1,1*59
$GPDTM,W84,,00.0000,N,00.0000,E,,W84*41
$GPGGA,004245.00,3239.4998,N,11928.6459,W,1,10,0.8,5.1,M,-36.8,M,,*5E
$GPDTM,W84,,00.0000,N,00.0000,E,,W84*41
$GPGLL,3239.4998,N,11928.6459,W,004245.00,A,A*76
$GPZDA,004247.00,16,03,2018,07,00*6B
$GPDTM,W84,,00.0000,N,00.0000,E,,W84*41
$GPRMC,004246.00,A,3239.5003,N,11928.6463,W,2.1,57.9,160318,11.9,E,A,S*59
$GPVTG,57.9,T,46.0,M,2.098,N,3.885,K,A*2F
$GPGBS,004246.00,2.67,2.25,2.44,,5.00,0.00,12.50,1,1*5C
$GPDTM,W84,,00.0000,N,00.0000,E,,W84*41
$GPGGA,004246.00,3239.5003,N,11928.6463,W,1,10,0.8,4.7,M,-36.8,M,,*59
$GPDTM,W84,,00.0000,N,00.0000,E,,W84*41
$GPGLL,3239.5003,N,11928.6463,W,004246.00,A,A*76
$GPZDA,004248.00,16,03,2018,07,00*64
$GPDTM,W84,,00.0000,N,00.0000,E,,W84*41
$GPRMC,004247.00,A,3239.5006,N,11928.6469,W,1.9,57.0,160318,11.9,E,A,S*55
$GPVTG,57.0,T,45.1,M,1.920,N,3.556,K,A*2E
$GPGBS,004247.00,2.81,2.44,2.48,,5.00,0.00,12.50,1,1*5E
$GPDTM,W84,,00.0000,N,00.0000,E,,W84*41
$GPGGA,004247.00,3239.5006,N,11928.6469,W,1,10,0.8,4.7,M,-36.8,M,,*57
$GPDTM,W84,,00.0000,N,00.0000,E,,W84*41
$GPGLL,3239.5006,N,11928.6469,W,004247.00,A,A*78
$GPZDA,004249.00,16,03,2018,07,00*65
$GPDTM,W84,,00.0000,N,00.0000,E,,W84*41
$GPRMC,004248.00,A,3239.5011,N,11928.6463,W,2.5,60.8,160318,11.9,E,A,S*55
$GPVTG,60.8,T,48.9,M,2.519,N,4.665,K,A*26
$GPGBS,004248.00,2.77,2.44,2.44,,5.00,0.00,12.50,1,1*54
$GPDTM,W84,,00.0000,N,00.0000,E,,W84*41
$GPGGA,004248.00,3239.5011,N,11928.6463,W,1,10,0.8,4.9,M,-36.8,M,,*5A
$GPDTM,W84,,00.0000,N,00.0000,E,,W84*41
$GPGLL,3239.5011,N,11928.6463,W,004248.00,A,A*7B
$GPZDA,004250.00,16,03,2018,07,00*6D
$GPDTM,W84,,00.0000,N,00.0000,E,,W84*41
$GPRMC,004249.00,A,3239.5018,N,11928.6448,W,2.9,62.1,160318,11.9,E,A,S*53
$GPVTG,62.1,T,50.2,M,2.893,N,5.358,K,A*2A
$GPGBS,004249.00,2.53,2.30,2.39,,5.00,0.00,12.50,1,1*5A
$GPDTM,W84,,00.0000,N,00.0000,E,,W84*41
$GPGGA,004249.00,3239.5018,N,11928.6448,W,1,10,0.8,5.4,M,-36.8,M,,*57
$GPDTM,W84,,00.0000,N,00.0000,E,,W84*41
$GPGLL,3239.5018,N,11928.6448,W,004249.00,A,A*7A
$GPZDA,004251.00,16,03,2018,07,00*6C
$GPDTM,W84,,00.0000,N,00.0000,E,,W84*41
$GPRMC,004250.00,A,3239.5026,N,11928.6441,W,2.8,62.0,160318,11.9,E,A,S*5F
$GPVTG,62.0,T,50.1,M,2.844,N,5.267,K,A*2F
$GPGBS,004250.00,2.30,2.16,2.34,,5.00,0.00,12.50,1,1*5E
$GPDTM,W84,,00.0000,N,00.0000,E,,W84*41
$GPGGA,004250.00,3239.5026,N,11928.6441,W,1,10,0.8,6.4,M,-36.8,M,,*58
$GPDTM,W84,,00.0000,N,00.0000,E,,W84*41
$GPGLL,3239.5026,N,11928.6441,W,004250.00,A,A*76
$GPZDA,004252.00,16,03,2018,07,00*6F
$GPDTM,W84,,00.0000,N,00.0000,E,,W84*41
$GPRMC,004251.00,A,3239.5034,N,11928.6446,W,2.9,59.1,160318,11.9,E,A,S*52
$GPVTG,59.1,T,47.2,M,2.920,N,5.408,K,A*2F
$GPGBS,004251.00,2.20,2.11,2.30,,5.00,0.00,12.50,1,1*5D
$GPDTM,W84,,00.0000,N,00.0000,E,,W84*41
$GPGGA,004251.00,3239.5034,N,11928.6446,W,1,10,0.8,6.1,M,-36.8,M,,*58
$GPDTM,W84,,00.0000,N,00.0000,E,,W84*41
$GPGLL,3239.5034,N,11928.6446,W,004251.00,A,A*73
$GPZDA,004253.00,16,03,2018,07,00*6E
$GPDTM,W84,,00.0000,N,00.0000,E,,W84*41
$GPRMC,004252.00,A,3239.5041,N,11928.6456,W,2.9,53.7,160318,11.9,E,A,S*5E
$GPVTG,53.7,T,41.8,M,2.893,N,5.358,K,A*24
$GPGBS,004252.00,2.06,2.02,2.25,,5.00,0.00,12.50,1,1*5C
$GPDTM,W84,,00.0000,N,00.0000,E,,W84*41
$GPGGA,004252.00,3239.5041,N,11928.6456,W,1,10,0.8,5.3,M,-36.8,M,,*59
$GPDTM,W84,,00.0000,N,00.0000,E,,W84*41
$GPGLL,3239.5041,N,11928.6456,W,004252.00,A,A*73
$GPZDA,004254.00,16,03,2018,07,00*69
$GPDTM,W84,,00.0000,N,00.0000,E,,W84*41
$GPRMC,004253.00,A,3239.5047,N,11928.6461,W,2.7,50.7,160318,11.9,E,A,S*50
$GPVTG,50.7,T,38.8,M,2.700,N,5.000,K,A*22
$GPGBS,004253.00,2.25,2.20,2.30,,5.00,0.00,12.50,1,1*58
$GPDTM,W84,,00.0000,N,00.0000,E,,W84*41
$GPGGA,004253.00,3239.5047,N,11928.6461,W,1,10,0.8,4.9,M,-36.8,M,,*51
$GPDTM,W84,,00.0000,N,00.0000,E,,W84*41
$GPGLL,3239.5047,N,11928.6461,W,004253.00,A,A*70
$GPZDA,004255.00,16,03,2018,07,00*68
$GPDTM,W84,,00.0000,N,00.0000,E,,W84*41
$GPRMC,004254.00,A,3239.5053,N,11928.6456,W,2.8,48.0,160318,11.9,E,A,S*57
$GPVTG,48.0,T,36.1,M,2.802,N,5.189,K,A*26
$GPGBS,004254.00,2.16,2.06,2.25,,5.00,0.00,12.50,1,1*5F
$GPDTM,W84,,00.0000,N,00.0000,E,,W84*41
$GPGGA,004254.00,3239.5053,N,11928.6456,W,1,10,0.8,4.7,M,-36.8,M,,*59
$GPDTM,W84,,00.0000,N,00.0000,E,,W84*41
$GPGLL,3239.5053,N,11928.6456,W,004254.00,A,A*76
$GPZDA,004256.00,16,03,2018,07,00*6B
$GPDTM,W84,,00.0000,N,00.0000,E,,W84*41
$GPRMC,004255.00,A,3239.5059,N,11928.6449,W,2.8,47.0,160318,11.9,E,A,S*5D
$GPVTG,47.0,T,35.1,M,2.838,N,5.256,K,A*22
$GPGBS,004255.00,2.06,1.92,2.20,,5.00,0.00,12.50,1,1*54
$GPDTM,W84,,00.0000,N,00.0000,E,,W84*41
$GPGGA,004255.00,3239.5059,N,11928.6449,W,1,10,0.8,5.3,M,-36.8,M,,*59
$GPDTM,W84,,00.0000,N,00.0000,E,,W84*41
$GPGLL,3239.5059,N,11928.6449,W,004255.00,A,A*73
$GPZDA,004257.00,16,03,2018,07,00*6A
$GPDTM,W84,,00.0000,N,00.0000,E,,W84*41
$GPRMC,004256.00,A,3239.5066,N,11928.6444,W,2.7,45.4,160318,11.9,E,A,S*56
$GPVTG,45.4,T,33.5,M,2.721,N,5.039,K,A*2A
$GPGBS,004256.00,1.92,1.73,2.16,,5.00,0.00,12.50,1,1*53
$GPDTM,W84,,00.0000,N,00.0000,E,,W84*41
$GPGGA,004256.00,3239.5066,N,11928.6444,W,1,10,0.8,6.7,M,-36.8,M,,*5C
$GPDTM,W84,,00.0000,N,00.0000,E,,W84*41
RNG: TX = 11.0 RX = 12.00 time = --.--- Sec.
$GPGLL,3239.5066,N,11928.6444,W,004256.00,A,A*71
$GPZDA,004258.00,16,03,2018,07,00*65
$GPDTM,W84,,00.0000,N,00.0000,E,,W84*41
$GPRMC,004257.00,A,3239.5073,N,11928.6446,W,2.6,42.1,160318,11.9,E,A,S*52
$GPVTG,42.1,T,30.2,M,2.636,N,4.882,K,A*22
$GPGBS,004257.00,1.97,1.73,2.11,,5.00,0.00,12.50,1,1*50
$GPDTM,W84,,00.0000,N,00.0000,E,,W84*41
$GPGGA,004257.00,3239.5073,N,11928.6446,W,1,10,0.8,7.4,M,-36.8,M,,*59
$GPDTM,W84,,00.0000,N,00.0000,E,,W84*41
$GPGLL,3239.5073,N,11928.6446,W,004257.00,A,A*76
$GPZDA,004259.00,16,03,2018,07,00*64
$GPDTM,W84,,00.0000,N,00.0000,E,,W84*41
$GPRMC,004258.00,A,3239.5081,N,11928.6447,W,2.6,37.6,160318,11.9,E,A,S*54
$GPVTG,37.6,T,25.7,M,2.649,N,4.906,K,A*23
$GPGBS,004258.00,1.97,1.78,2.06,,5.00,0.00,12.50,1,1*52
$GPDTM,W84,,00.0000,N,00.0000,E,,W84*41
$GPGGA,004258.00,3239.5081,N,11928.6447,W,1,10,0.8,7.0,M,-36.8,M,,*5E
$GPDTM,W84,,00.0000,N,00.0000,E,,W84*41
$GPGLL,3239.5081,N,11928.6447,W,004258.00,A,A*75
$GPZDA,004300.00,16,03,2018,07,00*69
$GPDTM,W84,,00.0000,N,00.0000,E,,W84*41
$GPRMC,004259.00,A,3239.5088,N,11928.6443,W,2.8,34.9,160318,11.9,E,A,S*5A
$GPVTG,34.9,T,23.0,M,2.778,N,5.145,K,A*23
$GPGBS,004259.00,1.92,1.73,2.11,,5.00,0.00,12.50,1,1*5B
$GPDTM,W84,,00.0000,N,00.0000,E,,W84*41
$GPGGA,004259.00,3239.5088,N,11928.6443,W,1,10,0.8,6.3,M,-36.8,M,,*50
$GPDTM,W84,,00.0000,N,00.0000,E,,W84*41
$GPGLL,3239.5088,N,11928.6443,W,004259.00,A,A*79
$GPZDA,004301.00,16,03,2018,07,00*68
$GPDTM,W84,,00.0000,N,00.0000,E,,W84*41
$GPRMC,004300.00,A,3239.5095,N,11928.6438,W,2.8,32.7,160318,11.9,E,A,S*5F
$GPVTG,32.7,T,20.8,M,2.846,N,5.271,K,A*26
$GPGBS,004300.00,1.83,1.73,2.11,,5.00,0.00,12.50,1,1*56
$GPDTM,W84,,00.0000,N,00.0000,E,,W84*41
$GPGGA,004300.00,3239.5095,N,11928.6438,W,1,10,0.8,5.2,M,-36.8,M,,*5F
$GPDTM,W84,,00.0000,N,00.0000,E,,W84*41
$GPGLL,3239.5095,N,11928.6438,W,004300.00,A,A*74
$GPZDA,004302.00,16,03,2018,07,00*6B
$GPDTM,W84,,00.0000,N,00.0000,E,,W84*41
$GPRMC,004301.00,A,3239.5104,N,11928.6436,W,3.0,29.6,160318,11.9,E,A,S*5B
$GPVTG,29.6,T,17.7,M,2.973,N,5.506,K,A*26
$GPGBS,004301.00,1.78,1.59,4.31,,5.00,0.00,12.50,1,1*5F
$GPDTM,W84,,00.0000,N,00.0000,E,,W84*41
$GPGGA,004301.00,3239.5104,N,11928.6436,W,1,10,0.8,3.8,M,-36.8,M,,*55
$GPDTM,W84,,00.0000,N,00.0000,E,,W84*41
$GPGLL,3239.5104,N,11928.6436,W,004301.00,A,A*72
$GPDTM,W84,,00.0000,N,00.0000,E,,W84*41
$GPRMC,004302.00,A,3239.5115,N,11928.6434,W,3.1,26.2,160318,11.9,E,A,S*50
$GPVTG,26.2,T,14.3,M,3.110,N,5.760,K,A*24
$GPGBS,004302.00,1.78,1.55,4.73,,5.00,0.00,12.50,1,1*56
$GPALR,,,V,V,*64
$GPDTM,W84,,00.0000,N,00.0000,E,,W84*41
$GPGGA,004302.00,3239.5115,N,11928.6434,W,1,10,0.8,3.7,M,-36.8,M,,*5B
$GPDTM,W84,,00.0000,N,00.0000,E,,W84*41
$GPGLL,3239.5115,N,11928.6434,W,004302.00,A,A*73
$GPZDA,004303.00,16,03,2018,07,00*6A
$GPVTG,26.2,T,14.3,M,3.110,N,5.760,K,A*24
$GPDTM,W84,,00.0000,N,00.0000,E,,W84*41
$GPRMC,004303.00,A,3239.5124,N,11928.6431,W,3.1,26.2,160318,11.9,E,A,S*56
$GPGBS,004303.00,1.78,1.55,4.73,,5.00,0.00,12.50,1,1*57
$GPDTM,W84,,00.0000,N,00.0000,E,,W84*41
$GPZDA,004304.00,16,03,2018,07,00*6D
$GPDTM,W84,,00.0000,N,00.0000,E,,W84*41
$GPGGA,004303.00,3239.5124,N,11928.6431,W,1,10,0.8,3.8,M,-36.8,M,,*52
$GPDTM,W84,,00.0000,N,00.0000,E,,W84*41
$GPGLL,3239.5124,N,11928.6431,W,004303.00,A,A*75
$GPVTG,24.5,T,12.6,M,3.058,N,5.663,K,A*2D
$GPDTM,W84,,00.0000,N,00.0000,E,,W84*41
$GPRMC,004304.00,A,3239.5131,N,11928.6427,W,3.1,24.5,160318,11.9,E,A,S*57
$GPDTM,W84,,00.0000,N,00.0000,E,,W84*41
$GPGGA,004304.00,3239.5131,N,11928.6427,W,1,10,0.8,6.7,M,-36.8,M,,*5C
$GPZDA,004305.00,16,03,2018,07,00*6C
$GPDTM,W84,,00.0000,N,00.0000,E,,W84*41
$GPGLL,3239.5131,N,11928.6427,W,004304.00,A,A*71
$GPGBS,004304.00,1.64,1.45,5.16,,5.00,0.00,12.50,1,1*5E
$GPVTG,23.6,T,11.7,M,2.976,N,5.512,K,A*2A
$GPDTM,W84,,00.0000,N,00.0000,E,,W84*41
$GPRMC,004305.00,A,3239.5139,N,11928.6422,W,3.0,23.6,160318,11.9,E,A,S*5E
$GPDTM,W84,,00.0000,N,00.0000,E,,W84*41
$GPZDA,004306.00,16,03,2018,07,00*6F
$GPDTM,W84,,00.0000,N,00.0000,E,,W84*41
$GPGLL,3239.5139,N,11928.6422,W,004305.00,A,A*7D
RNG: TX = 11.0 RX = 12.00 time = --.--- Sec.
$GPGBS,004305.00,1.59,1.50,4.31,,5.00,0.00,12.50,1,1*51
$GPDTM,W84,,00.0000,N,00.0000,E,,W84*41
$GPGGA,004305.00,3239.5139,N,11928.6422,W,1,10,0.8,7.9,M,-36.8,M,,*5F
$GPVTG,22.7,T,10.8,M,3.096,N,5.734,K,A*24
$GPDTM,W84,,00.0000,N,00.0000,E,,W84*41
$GPRMC,004306.00,A,3239.5149,N,11928.6419,W,3.1,22.7,160318,11.9,E,A,S*53
$GPZDA,004307.00,16,03,2018,07,00*6E
$GPDTM,W84,,00.0000,N,00.0000,E,,W84*41
$GPGLL,3239.5149,N,11928.6419,W,004306.00,A,A*71
$GPGBS,004306.00,1.59,1.45,4.27,,5.00,0.00,12.50,1,1*51
$GPDTM,W84,,00.0000,N,00.0000,E,,W84*41
$GPGGA,004306.00,3239.5149,N,11928.6419,W,1,10,0.8,7.7,M,-36.8,M,,*5D
$GPVTG,20.9,T,9.0,M,3.253,N,6.025,K,A*17
$GPDTM,W84,,00.0000,N,00.0000,E,,W84*41
$GPRMC,004307.00,A,3239.5159,N,11928.6419,W,3.3,20.9,160318,11.9,E,A,S*5D
$GPZDA,004308.00,16,03,2018,07,00*61
$GPDTM,W84,,00.0000,N,00.0000,E,,W84*41
$GPGLL,3239.5159,N,11928.6419,W,004307.00,A,A*71
$GPGBS,004307.00,1.55,1.45,4.83,,5.00,0.00,12.50,1,1*52
$GPDTM,W84,,00.0000,N,00.0000,E,,W84*41
$GPGGA,004307.00,3239.5159,N,11928.6419,W,1,10,0.8,4.5,M,-36.8,M,,*5C
$GPVTG,18.6,T,6.7,M,3.294,N,6.100,K,A*16
$GPDTM,W84,,00.0000,N,00.0000,E,,W84*41
$GPRMC,004308.00,A,3239.5166,N,11928.6419,W,3.3,18.6,160318,11.9,E,A,S*5A
$GPZDA,004309.00,16,03,2018,07,00*60
$GPDTM,W84,,00.0000,N,00.0000,E,,W84*41
$GPGLL,3239.5166,N,11928.6419,W,004308.00,A,A*72
$GPGBS,004308.00,1.69,1.59,6.98,,5.00,0.00,12.50,1,1*57
$GPDTM,W84,,00.0000,N,00.0000,E,,W84*41
$GPGGA,004308.00,3239.5166,N,11928.6419,W,1,10,0.8,4.0,M,-36.8,M,,*5A
$GPVTG,17.6,T,5.7,M,3.058,N,5.663,K,A*19
$GPDTM,W84,,00.0000,N,00.0000,E,,W84*41
$GPRMC,004309.00,A,3239.5170,N,11928.6415,W,3.1,17.6,160318,11.9,E,A,S*5D
$GPZDA,004310.00,16,03,2018,07,00*68
$GPDTM,W84,,00.0000,N,00.0000,E,,W84*41
$GPGLL,3239.5170,N,11928.6415,W,004309.00,A,A*78
$GPGBS,004309.00,1.64,1.59,4.31,,5.00,0.00,12.50,1,1*5A
$GPDTM,W84,,00.0000,N,00.0000,E,,W84*41
$GPGGA,004309.00,3239.5170,N,11928.6415,W,1,10,0.8,5.3,M,-36.8,M,,*52
$GPVTG,17.7,T,5.8,M,3.024,N,5.600,K,A*19
$GPDTM,W84,,00.0000,N,00.0000,E,,W84*41
$GPRMC,004310.00,A,3239.5177,N,11928.6406,W,3.0,17.7,160318,11.9,E,A,S*50
$GPZDA,004311.00,16,03,2018,07,00*69
$GPDTM,W84,,00.0000,N,00.0000,E,,W84*41
$GPGLL,3239.5177,N,11928.6406,W,004310.00,A,A*75
$GPGBS,004310.00,1.55,1.45,4.17,,5.00,0.00,12.50,1,1*59
$GPPOS,GP,01,A,0.0,0.0,0.0,A,30.0,100.0,R*03
$GPDTM,W84,,00.0000,N,00.0000,E,,W84*41
$GPGGA,004310.00,3239.5177,N,11928.6406,W,1,10,0.8,6.7,M,-36.8,M,,*58
$GPVTG,22.9,T,11.0,M,3.314,N,6.138,K,A*23
$GPDTM,W84,,00.0000,N,00.0000,E,,W84*41
$GPZDA,004312.00,16,03,2018,07,00*6A
$GPDTM,W84,,00.0000,N,00.0000,E,,W84*41
$GPRMC,004311.00,A,3239.5189,N,11928.6399,W,3.6,19.8,160318,11.9,E,A,S*56
$GPGBS,004311.00,1.59,1.45,4.22,,5.00,0.00,12.50,1,1*52
$GPDTM,W84,,00.0000,N,00.0000,E,,W84*41
$GPGGA,004311.00,3239.5189,N,11928.6399,W,1,10,0.8,6.7,M,-36.8,M,,*59
$GPDTM,W84,,00.0000,N,00.0000,E,,W84*41
$GPGLL,3239.5189,N,11928.6399,W,004311.00,A,A*74
$GPVTG,19.8,T,7.9,M,3.572,N,6.615,K,A*1A
$GPZDA,004313.00,16,03,2018,07,00*6B
$GPDTM,W84,,00.0000,N,00.0000,E,,W84*41
$GPRMC,004312.00,A,3239.5201,N,11928.6403,W,3.6,13.1,160318,11.9,E,A,S*51
$GPGBS,004312.00,1.64,1.50,4.22,,5.00,0.00,12.50,1,1*5B
$GPDTM,W84,,00.0000,N,00.0000,E,,W84*41
$GPGGA,004312.00,3239.5201,N,11928.6403,W,1,10,0.8,5.3,M,-36.8,M,,*5A
$GPDTM,W84,,00.0000,N,00.0000,E,,W84*41
$GPGLL,3239.5201,N,11928.6403,W,004312.00,A,A*70
$GPVTG,13.1,T,1.2,M,3.640,N,6.741,K,A*16
$GPZDA,004314.00,16,03,2018,07,00*6C
$GPDTM,W84,,00.0000,N,00.0000,E,,W84*41
$GPRMC,004313.00,A,3239.5210,N,11928.6412,W,3.5,5.7,160318,11.9,E,A,S*62
$GPGBS,004313.00,1.69,1.55,5.34,,5.00,0.00,12.50,1,1*54
$GPDTM,W84,,00.0000,N,00.0000,E,,W84*41
$GPGGA,004313.00,3239.5210,N,11928.6412,W,1,10,0.8,4.6,M,-36.8,M,,*5F
$GPDTM,W84,,00.0000,N,00.0000,E,,W84*41
$GPGLL,3239.5210,N,11928.6412,W,004313.00,A,A*71
$GPVTG,5.7,T,353.8,M,3.544,N,6.563,K,A*2C
$GPZDA,004315.00,16,03,2018,07,00*6D
$GPDTM,W84,,00.0000,N,00.0000,E,,W84*41
RNG: TX = 11.0 RX = 12.00 time = --.--- Sec.
$GPRMC,004314.00,A,3239.5219,N,11928.6415,W,3.5,1.6,160318,11.9,E,A,S*6E
$GPGBS,004314.00,1.73,1.55,4.88,,5.00,0.00,12.50,1,1*5E
$GPDTM,W84,,00.0000,N,00.0000,E,,W84*41
$GPGGA,004314.00,3239.5219,N,11928.6415,W,1,10,0.8,5.8,M,-36.8,M,,*59
$GPDTM,W84,,00.0000,N,00.0000,E,,W84*41
$GPGLL,3239.5219,N,11928.6415,W,004314.00,A,A*78
$GPVTG,1.6,T,349.7,M,3.507,N,6.495,K,A*22
$GPZDA,004316.00,16,03,2018,07,00*6E
$GPDTM,W84,,00.0000,N,00.0000,E,,W84*41
$GPRMC,004315.00,A,3239.5230,N,11928.6408,W,3.8,9.0,160318,11.9,E,A,S*6B
$GPGBS,004315.00,1.73,1.59,4.78,,5.00,0.00,12.50,1,1*5C
$GPDTM,W84,,00.0000,N,00.0000,E,,W84*41
$GPGGA,004315.00,3239.5230,N,11928.6408,W,1,10,0.8,6.4,M,-36.8,M,,*50
$GPDTM,W84,,00.0000,N,00.0000,E,,W84*41
$GPGLL,3239.5230,N,11928.6408,W,004315.00,A,A*7E
$GPVTG,9.0,T,357.1,M,3.762,N,6.967,K,A*24
$GPZDA,004317.00,16,03,2018,07,00*6F
$GPDTM,W84,,00.0000,N,00.0000,E,,W84*41
$GPRMC,004316.00,A,3239.5244,N,11928.6400,W,4.0,10.2,160318,11.9,E,A,S*56
$GPGBS,004316.00,1.73,1.50,4.55,,5.00,0.00,12.50,1,1*59
$GPDTM,W84,,00.0000,N,00.0000,E,,W84*41
$GPGGA,004316.00,3239.5244,N,11928.6400,W,1,10,0.8,5.5,M,-36.8,M,,*5A
$GPDTM,W84,,00.0000,N,00.0000,E,,W84*41
$GPGLL,3239.5244,N,11928.6400,W,004316.00,A,A*76
$GPVTG,10.2,T,358.3,M,3.970,N,7.352,K,A*13
$GPZDA,004318.00,16,03,2018,07,00*60
$GPDTM,W84,,00.0000,N,00.0000,E,,W84*41
$GPRMC,004317.00,A,3239.5256,N,11928.6400,W,3.9,10.2,160318,11.9,E,A,S*5A
$GPGBS,004317.00,1.73,1.50,4.45,,5.00,0.00,12.50,1,1*59
$GPDTM,W84,,00.0000,N,00.0000,E,,W84*41
$GPGGA,004317.00,3239.5256,N,11928.6400,W,1,10,0.8,8.0,M,-36.8,M,,*50
$GPDTM,W84,,00.0000,N,00.0000,E,,W84*41
$GPGLL,3239.5256,N,11928.6400,W,004317.00,A,A*74
$GPVTG,10.2,T,358.3,M,3.856,N,7.141,K,A*16
$GPZDA,004319.00,16,03,2018,07,00*61
$GPDTM,W84,,00.0000,N,00.0000,E,,W84*41
$GPRMC,004318.00,A,3239.5262,N,11928.6400,W,3.4,10.2,160318,11.9,E,A,S*5F
$GPGBS,004318.00,1.88,1.64,6.80,,5.00,0.00,12.50,1,1*5E
$GPDTM,W84,,00.0000,N,00.0000,E,,W84*41
$GPGGA,004318.00,3239.5262,N,11928.6400,W,1,10,0.8,8.6,M,-36.8,M,,*5E
$GPDTM,W84,,00.0000,N,00.0000,E,,W84*41
$GPGLL,3239.5262,N,11928.6400,W,004318.00,A,A*7C
$GPVTG,10.2,T,358.3,M,3.437,N,6.365,K,A*18
$GPZDA,004320.00,16,03,2018,07,00*6B
$GPDTM,W84,,00.0000,N,00.0000,E,,W84*41
$GPRMC,004319.00,A,3239.5268,N,11928.6393,W,3.5,12.9,160318,11.9,E,A,S*51
$GPGBS,004319.00,1.83,1.64,4.69,,5.00,0.00,12.50,1,1*51
$GPDTM,W84,,00.0000,N,00.0000,E,,W84*41
$GPGGA,004319.00,3239.5268,N,11928.6393,W,1,10,0.8,8.5,M,-36.8,M,,*5B
$GPDTM,W84,,00.0000,N,00.0000,E,,W84*41
$GPGLL,3239.5268,N,11928.6393,W,004319.00,A,A*7A
$GPVTG,12.9,T,1.0,M,3.530,N,6.538,K,A*15
$GPZDA,004321.00,16,03,2018,07,00*6A
$GPDTM,W84,,00.0000,N,00.0000,E,,W84*41
$GPRMC,004320.00,A,3239.5282,N,11928.6384,W,4.1,14.8,160318,11.9,E,A,S*5D
$GPGBS,004320.00,1.78,1.59,4.41,,5.00,0.00,12.50,1,1*5B
$GPHBT,50,A,5*14
$GPDTM,W84,,00.0000,N,00.0000,E,,W84*41
$GPGGA,004320.00,3239.5282,N,11928.6384,W,1,10,0.8,7.3,M,-36.8,M,,*5A
$GPDTM,W84,,00.0000,N,00.0000,E,,W84*41
$GPGLL,3239.5282,N,11928.6384,W,004320.00,A,A*72
$GPVTG,14.8,T,2.9,M,4.126,N,7.641,K,A*10
$GPZDA,004322.00,16,03,2018,07,00*69
$GPDTM,W84,,00.0000,N,00.0000,E,,W84*41
$GPRMC,004321.00,A,3239.5298,N,11928.6381,W,4.2,13.5,160318,11.9,E,A,S*5B
$GPGBS,004321.00,1.83,1.69,3.75,,5.00,0.00,12.50,1,1*5D
$GPDTM,W84,,00.0000,N,00.0000,E,,W84*41
$GPGGA,004321.00,3239.5298,N,11928.6381,W,1,10,0.8,6.1,M,-36.8,M,,*56
$GPDTM,W84,,00.0000,N,00.0000,E,,W84*41
$GPGLL,3239.5298,N,11928.6381,W,004321.00,A,A*7D
$GPVTG,13.5,T,1.6,M,4.181,N,7.743,K,A*18
$GPZDA,004323.00,16,03,2018,07,00*68
$GPDTM,W84,,00.0000,N,00.0000,E,,W84*41
RNG: TX = 11.0 RX = 12.00 time = --.--- Sec.
$GPRMC,004322.00,A,3239.5306,N,11928.6384,W,3.8,13.0,160318,11.9,E,A,S*53
$GPGBS,004322.00,2.06,1.92,3.80,,5.00,0.00,12.50,1,1*5E
$GPDTM,W84,,00.0000,N,00.0000,E,,W84*41
$GPGGA,004322.00,3239.5306,N,11928.6384,W,1,10,0.8,5.4,M,-36.8,M,,*50
$GPDTM,W84,,00.0000,N,00.0000,E,,W84*41
$GPGLL,3239.5306,N,11928.6384,W,004322.00,A,A*7D
$GPVTG,13.0,T,1.1,M,3.754,N,6.952,K,A*1C
$GPZDA,004324.00,16,03,2018,07,00*6F
$GPDTM,W84,,00.0000,N,00.0000,E,,W84*41
$GPRMC,004323.00,A,3239.5309,N,11928.6384,W,3.3,12.6,160318,11.9,E,A,S*51
$GPGBS,004323.00,2.25,2.11,3.80,,5.00,0.00,12.50,1,1*56
$GPDTM,W84,,00.0000,N,00.0000,E,,W84*41
$GPGGA,004323.00,3239.5309,N,11928.6384,W,1,10,0.8,5.4,M,-36.8,M,,*5E
$GPDTM,W84,,00.0000,N,00.0000,E,,W84*41
$GPGLL,3239.5309,N,11928.6384,W,004323.00,A,A*73
$GPVTG,12.6,T,0.7,M,3.330,N,6.167,K,A*14
$GPZDA,004325.00,16,03,2018,07,00*6E
$GPDTM,W84,,00.0000,N,00.0000,E,,W84*41
$GPRMC,004324.00,A,3239.5318,N,11928.6377,W,3.7,17.6,160318,11.9,E,A,S*5B
$GPGBS,004324.00,2.16,1.88,5.34,,5.00,0.00,12.50,1,1*5B
$GPDTM,W84,,00.0000,N,00.0000,E,,W84*41
$GPGGA,004324.00,3239.5318,N,11928.6377,W,1,10,0.8,5.1,M,-36.8,M,,*50
$GPDTM,W84,,00.0000,N,00.0000,E,,W84*41
$GPGLL,3239.5318,N,11928.6377,W,004324.00,A,A*78
$GPVTG,17.6,T,5.7,M,3.718,N,6.886,K,A*1C
$GPZDA,004326.00,16,03,2018,07,00*6D
$GPDTM,W84,,00.0000,N,00.0000,E,,W84*41
$GPRMC,004325.00,A,3239.5333,N,11928.6369,W,4.0,15.9,160318,11.9,E,A,S*51
$GPGBS,004325.00,2.20,1.83,4.73,,5.00,0.00,12.50,1,1*56
$GPDTM,W84,,00.0000,N,00.0000,E,,W84*41
$GPGGA,004325.00,3239.5333,N,11928.6369,W,1,10,0.8,4.5,M,-36.8,M,,*52
$GPDTM,W84,,00.0000,N,00.0000,E,,W84*41
$GPGLL,3239.5333,N,11928.6369,W,004325.00,A,A*7F
$GPVTG,15.9,T,4.0,M,4.022,N,7.449,K,A*10
$GPZDA,004327.00,16,03,2018,07,00*6C
$GPDTM,W84,,00.0000,N,00.0000,E,,W84*41
$GPRMC,004326.00,A,3239.5345,N,11928.6370,W,4.0,13.8,160318,11.9,E,A,S*5C
$GPGBS,004326.00,2.11,1.73,3.89,,5.00,0.00,12.50,1,1*5A
$GPDTM,W84,,00.0000,N,00.0000,E,,W84*41
$GPGGA,004326.00,3239.5345,N,11928.6370,W,1,10,0.8,6.0,M,-36.8,M,,*5F
$GPDTM,W84,,00.0000,N,00.0000,E,,W84*41
$GPGLL,3239.5345,N,11928.6370,W,004326.00,A,A*75
$GPVTG,13.8,T,1.9,M,3.958,N,7.330,K,A*11
$GPZDA,004328.00,16,03,2018,07,00*63
$GPDTM,W84,,00.0000,N,00.0000,E,,W84*41
$GPRMC,004327.00,A,3239.5354,N,11928.6376,W,3.9,9.0,160318,11.9,E,A,S*66
$GPGBS,004327.00,2.11,1.69,3.80,,5.00,0.00,12.50,1,1*59
$GPDTM,W84,,00.0000,N,00.0000,E,,W84*41
$GPGGA,004327.00,3239.5354,N,11928.6376,W,1,10,0.8,6.2,M,-36.8,M,,*5A
$GPDTM,W84,,00.0000,N,00.0000,E,,W84*41
$GPGLL,3239.5354,N,11928.6376,W,004327.00,A,A*72
$GPVTG,9.0,T,357.1,M,3.894,N,7.212,K,A*2A
$GPZDA,004329.00,16,03,2018,07,00*62
$GPDTM,W84,,00.0000,N,00.0000,E,,W84*41
$GPRMC,004328.00,A,3239.5364,N,11928.6380,W,3.8,5.7,160318,11.9,E,A,S*69
$GPGBS,004328.00,1.97,1.73,3.61,,5.00,0.00,12.50,1,1*5F
$GPDTM,W84,,00.0000,N,00.0000,E,,W84*41
$GPGGA,004328.00,3239.5364,N,11928.6380,W,1,10,0.8,6.8,M,-36.8,M,,*55
$GPDTM,W84,,00.0000,N,00.0000,E,,W84*41
$GPGLL,3239.5364,N,11928.6380,W,004328.00,A,A*77
$GPVTG,5.7,T,353.8,M,3.840,N,7.112,K,A*26
$GPZDA,004330.00,16,03,2018,07,00*6A
$GPDTM,W84,,00.0000,N,00.0000,E,,W84*41
$GPRMC,004329.00,A,3239.5373,N,11928.6373,W,3.8,15.1,160318,11.9,E,A,S*55
$GPGBS,004329.00,1.97,1.78,3.42,,5.00,0.00,12.50,1,1*54
$GPDTM,W84,,00.0000,N,00.0000,E,,W84*41
$GPGGA,004329.00,3239.5373,N,11928.6373,W,1,10,0.8,6.8,M,-36.8,M,,*5E
$GPDTM,W84,,00.0000,N,00.0000,E,,W84*41
$GPGLL,3239.5373,N,11928.6373,W,004329.00,A,A*7C
$GPVTG,15.1,T,3.2,M,3.814,N,7.064,K,A*1C
$GPZDA,004331.00,16,03,2018,07,00*6B
$GPDTM,W84,,00.0000,N,00.0000,E,,W84*41
$GPRMC,004330.00,A,3239.5381,N,11928.6359,W,3.9,22.5,160318,11.9,E,A,S*59
$GPGBS,004330.00,1.88,1.73,3.14,,5.00,0.00,12.50,1,1*5A
$GPDTM,W84,,00.0000,N,00.0000,E,,W84*41
$GPGGA,004330.00,3239.5381,N,11928.6359,W,1,10,0.8,7.7,M,-36.8,M,,*5D
$GPDTM,W84,,00.0000,N,00.0000,E,,W84*41
$GPGLL,3239.5381,N,11928.6359,W,004330.00,A,A*71
$GPVTG,22.5,T,10.6,M,3.880,N,7.186,K,A*2A
$GPZDA,004332.00,16,03,2018,07,00*68
$GPDTM,W84,,00.0000,N,00.0000,E,,W84*41
$GPRMC,004331.00,A,3239.5389,N,11928.6351,W,3.7,25.5,160318,11.9,E,A,S*51
$GPGBS,004331.00,1.92,1.64,3.05,,5.00,0.00,12.50,1,1*56
$GPDTM,W84,,00.0000,N,00.0000,E,,W84*41
$GPGGA,004331.00,3239.5389,N,11928.6351,W,1,10,0.8,7.9,M,-36.8,M,,*52
$GPDTM,W84,,00.0000,N,00.0000,E,,W84*41
$GPGLL,3239.5389,N,11928.6351,W,004331.00,A,A*70
$GPVTG,25.5,T,13.6,M,3.701,N,6.854,K,A*2F
$GPZDA,004333.00,16,03,2018,07,00*69
$GPDTM,W84,,00.0000,N,00.0000,E,,W84*41
$GPRMC,004332.00,A,3239.5398,N,11928.6353,W,3.7,22.4,160318,11.9,E,A,S*56
$GPGBS,004332.00,2.02,1.78,3.00,,5.00,0.00,12.50,1,1*57
$GPALR,,,V,V,*64
$GPDTM,W84,,00.0000,N,00.0000,E,,W84*41
$GPGGA,004332.00,3239.5398,N,11928.6353,W,1,10,0.8,6.5,M,-36.8,M,,*5E
$GPDTM,W84,,00.0000,N,00.0000,E,,W84*41
$GPGLL,3239.5398,N,11928.6353,W,004332.00,A,A*71
$GPVTG,22.4,T,10.5,M,3.749,N,6.943,K,A*22
$GPZDA,004334.00,16,03,2018,07,00*6E
$GPDTM,W84,,00.0000,N,00.0000,E,,W84*41
$GPRMC,004333.00,A,3239.5409,N,11928.6362,W,3.8,14.4,160318,11.9,E,A,S*50
$GPGBS,004333.00,2.02,1.78,2.91,,5.00,0.00,12.50,1,1*5F
$GPDTM,W84,,00.0000,N,00.0000,E,,W84*41
$GPGGA,004333.00,3239.5409,N,11928.6362,W,1,11,0.8,5.2,M,-36.8,M,,*57
$GPDTM,W84,,00.0000,N,00.0000,E,,W84*41
$GPGLL,3239.5409,N,11928.6362,W,004333.00,A,A*7D
$GPVTG,14.4,T,2.5,M,3.776,N,6.993,K,A*15
$GPZDA,004335.00,16,03,2018,07,00*6F
$GPDTM,W84,,00.0000,N,00.0000,E,,W84*41
$GPRMC,004334.00,A,3239.5418,N,11928.6363,W,3.8,14.6,160318,11.9,E,A,S*54
$GPGBS,004334.00,2.02,1.83,2.77,,5.00,0.00,12.50,1,1*54
$GPDTM,W84,,00.0000,N,00.0000,E,,W84*41
$GPGGA,004334.00,3239.5418,N,11928.6363,W,1,11,0.8,5.5,M,-36.8,M,,*56
$GPDTM,W84,,00.0000,N,00.0000,E,,W84*41
$GPGLL,3239.5418,N,11928.6363,W,004334.00,A,A*7B
$GPVTG,14.6,T,2.7,M,3.811,N,7.058,K,A*14
$GPZDA,004336.00,16,03,2018,07,00*6C
$GPDTM,W84,,00.0000,N,00.0000,E,,W84*41
$GPRMC,004335.00,A,3239.5426,N,11928.6350,W,4.0,24.1,160318,11.9,E,A,S*53
$GPGBS,004335.00,1.92,1.69,3.89,,5.00,0.00,12.50,1,1*5B
$GPDTM,W84,,00.0000,N,00.0000,E,,W84*41
$GPGGA,004335.00,3239.5426,N,11928.6350,W,1,11,0.8,6.5,M,-36.8,M,,*59
$GPDTM,W84,,00.0000,N,00.0000,E,,W84*41
$GPGLL,3239.5426,N,11928.6350,W,004335.00,A,A*77
$GPVTG,24.1,T,12.2,M,3.985,N,7.380,K,A*2E
$GPZDA,004337.00,16,03,2018,07,00*6D
$GPDTM,W84,,00.0000,N,00.0000,E,,W84*41
$GPRMC,004336.00,A,3239.5438,N,11928.6339,W,4.2,23.6,160318,11.9,E,A,S*52
$GPGBS,004336.00,1.97,1.64,3.38,,5.00,0.00,12.50,1,1*5A
$GPDTM,W84,,00.0000,N,00.0000,E,,W84*41
$GPGGA,004336.00,3239.5438,N,11928.6339,W,1,11,0.8,8.3,M,-36.8,M,,*52
$GPDTM,W84,,00.0000,N,00.0000,E,,W84*41
$GPGLL,3239.5438,N,11928.6339,W,004336.00,A,A*74
$GPVTG,23.6,T,11.7,M,4.203,N,7.784,K,A*2A
$GPZDA,004338.00,16,03,2018,07,00*62
$GPDTM,W84,,00.0000,N,00.0000,E,,W84*41
$GPRMC,004337.00,A,3239.5450,N,11928.6338,W,4.2,19.8,160318,11.9,E,A,S*5B
$GPGBS,004337.00,2.02,1.73,3.09,,5.00,0.00,12.50,1,1*50
$GPDTM,W84,,00.0000,N,00.0000,E,,W84*41
$GPGGA,004337.00,3239.5450,N,11928.6338,W,1,11,0.8,8.1,M,-36.8,M,,*5E
$GPDTM,W84,,00.0000,N,00.0000,E,,W84*41
$GPGLL,3239.5450,N,11928.6338,W,004337.00,A,A*7A
$GPVTG,19.8,T,7.9,M,4.199,N,7.777,K,A*18
$GPZDA,004339.00,16,03,2018,07,00*63
$GPDTM,W84,,00.0000,N,00.0000,E,,W84*41
$GPRMC,004338.00,A,3239.5459,N,11928.6342,W,3.9,17.3,160318,11.9,E,A,S*59
$GPGBS,004338.00,1.97,1.73,2.95,,5.00,0.00,12.50,1,1*54
$GPDTM,W84,,00.0000,N,00.0000,E,,W84*41
$GPGGA,004338.00,3239.5459,N,11928.6342,W,1,11,0.8,8.2,M,-36.8,M,,*56
$GPDTM,W84,,00.0000,N,00.0000,E,,W84*41
$GPGLL,3239.5459,N,11928.6342,W,004338.00,A,A*71
$GPVTG,17.3,T,5.4,M,3.925,N,7.269,K,A*10
$GPZDA,004340.00,16,03,2018,07,00*6D
$GPDTM,W84,,00.0000,N,00.0000,E,,W84*41
$GPRMC,004339.00,A,3239.5468,N,11928.6340,W,3.9,15.1,160318,11.9,E,A,S*58
$GPGBS,004339.00,2.02,1.69,2.86,,5.00,0.00,12.50,1,1*53
$GPDTM,W84,,00.0000,N,00.0000,E,,W84*41
$GPGGA,004339.00,3239.5468,N,11928.6340,W,1,11,0.8,8.0,M,-36.8,M,,*55
$GPDTM,W84,,00.0000,N,00.0000,E,,W84*41
$GPGLL,3239.5468,N,11928.6340,W,004339.00,A,A*70
$GPVTG,15.1,T,3.2,M,3.855,N,7.139,K,A*10
$GPZDA,004341.00,16,03,2018,07,00*6C
$GPDTM,W84,,00.0000,N,00.0000,E,,W84*41
$GPRMC,004340.00,A,3239.5478,N,11928.6335,W,4.0,15.4,160318,11.9,E,A,S*5E
$GPGBS,004340.00,2.02,1.64,2.67,,5.00,0.00,12.50,1,1*5F
$GPPOS,GP,01,A,0.0,0.0,0.0,A,30.0,100.0,R*03
$GPDTM,W84,,00.0000,N,00.0000,E,,W84*41
$GPGGA,004340.00,3239.5478,N,11928.6335,W,1,11,0.8,6.4,M,-36.8,M,,*52
$GPDTM,W84,,00.0000,N,00.0000,E,,W84*41
$GPGLL,3239.5478,N,11928.6335,W,004340.00,A,A*7D
$GPZDA,004342.00,16,03,2018,07,00*6F
$GPDTM,W84,,00.0000,N,00.0000,E,,W84*41
$GPRMC,004341.00,A,3239.5489,N,11928.6329,W,3.9,15.8,160318,11.9,E,A,S*5E
$GPVTG,15.8,T,3.9,M,3.914,N,7.249,K,A*12
$GPGBS,004341.00,1.92,1.73,2.48,,5.00,0.00,12.50,1,1*5F
$GPDTM,W84,,00.0000,N,00.0000,E,,W84*41
$GPGGA,004341.00,3239.5489,N,11928.6329,W,1,11,0.8,5.5,M,-36.8,M,,*52
$GPDTM,W84,,00.0000,N,00.0000,E,,W84*41
$GPGLL,3239.5489,N,11928.6329,W,004341.00,A,A*7F
$GPZDA,004343.00,16,03,2018,07,00*6E
$GPDTM,W84,,00.0000,N,00.0000,E,,W84*41
$GPRMC,004342.00,A,3239.5498,N,11928.6326,W,3.9,15.9,160318,11.9,E,A,S*53
$GPVTG,15.9,T,4.0,M,3.860,N,7.149,K,A*1C
$GPGBS,004342.00,1.88,1.73,2.39,,5.00,0.00,12.50,1,1*51
$GPDTM,W84,,00.0000,N,00.0000,E,,W84*41
$GPGGA,004342.00,3239.5498,N,11928.6326,W,1,11,0.8,5.6,M,-36.8,M,,*5D
$GPDTM,W84,,00.0000,N,00.0000,E,,W84*41
$GPGLL,3239.5498,N,11928.6326,W,004342.00,A,A*73
$GPZDA,004344.00,16,03,2018,07,00*69
$GPDTM,W84,,00.0000,N,00.0000,E,,W84*41
$GPRMC,004343.00,A,3239.5508,N,11928.6325,W,3.9,13.3,160318,11.9,E,A,S*55
$GPVTG,13.3,T,1.4,M,3.947,N,7.310,K,A*1B
$GPGBS,004343.00,1.83,1.78,2.30,,5.00,0.00,12.50,1,1*59
$GPDTM,W84,,00.0000,N,00.0000,E,,W84*41
$GPGGA,004343.00,3239.5508,N,11928.6325,W,1,11,0.8,6.1,M,-36.8,M,,*53
$GPDTM,W84,,00.0000,N,00.0000,E,,W84*41
$GPGLL,3239.5508,N,11928.6325,W,004343.00,A,A*79
$GPZDA,004345.00,16,03,2018,07,00*68
$GPDTM,W84,,00.0000,N,00.0000,E,,W84*41
$GPRMC,004344.00,A,3239.5521,N,11928.6326,W,4.0,10.6,160318,11.9,E,A,S*52
$GPVTG,10.6,T,358.7,M,4.029,N,7.462,K,A*15
$GPGBS,004344.00,1.83,1.73,2.16,,5.00,0.00,12.50,1,1*51
$GPDTM,W84,,00.0000,N,00.0000,E,,W84*41
$GPGGA,004344.00,3239.5521,N,11928.6326,W,1,11,0.8,6.1,M,-36.8,M,,*5C
$GPDTM,W84,,00.0000,N,00.0000,E,,W84*41
$GPGLL,3239.5521,N,11928.6326,W,004344.00,A,A*76
$GPZDA,004346.00,16,03,2018,07,00*6B
$GPDTM,W84,,00.0000,N,00.0000,E,,W84*41
$GPRMC,004345.00,A,3239.5532,N,11928.6325,W,4.0,9.3,160318,11.9,E,A,S*6F
$GPVTG,9.3,T,357.4,M,3.968,N,7.349,K,A*21
$GPGBS,004345.00,1.92,1.78,2.11,,5.00,0.00,12.50,1,1*5C
$GPDTM,W84,,00.0000,N,00.0000,E,,W84*41
$GPGGA,004345.00,3239.5532,N,11928.6325,W,1,11,0.8,6.1,M,-36.8,M,,*5C
$GPDTM,W84,,00.0000,N,00.0000,E,,W84*41
$GPGLL,3239.5532,N,11928.6325,W,004345.00,A,A*76
$GPZDA,004347.00,16,03,2018,07,00*6A
$GPDTM,W84,,00.0000,N,00.0000,E,,W84*41
$GPRMC,004346.00,A,3239.5543,N,11928.6319,W,4.0,15.4,160318,11.9,E,A,S*5F
$GPVTG,15.4,T,3.5,M,4.002,N,7.412,K,A*13
$GPGBS,004346.00,1.92,1.73,2.06,,5.00,0.00,12.50,1,1*52
$GPDTM,W84,,00.0000,N,00.0000,E,,W84*41
$GPGGA,004346.00,3239.5543,N,11928.6319,W,1,11,0.8,7.6,M,-36.8,M,,*50
$GPDTM,W84,,00.0000,N,00.0000,E,,W84*41
$GPGLL,3239.5543,N,11928.6319,W,004346.00,A,A*7C
$GPZDA,004348.00,16,03,2018,07,00*65
$GPDTM,W84,,00.0000,N,00.0000,E,,W84*41
$GPRMC,004347.00,A,3239.5555,N,11928.6311,W,4.2,16.1,160318,11.9,E,A,S*55
$GPVTG,16.1,T,4.2,M,4.190,N,7.760,K,A*19
$GPGBS,004347.00,1.92,1.73,2.02,,5.00,0.00,12.50,1,1*57
$GPDTM,W84,,00.0000,N,00.0000,E,,W84*41
$GPGGA,004347.00,3239.5555,N,11928.6311,W,1,11,0.8,8.0,M,-36.8,M,,*57
$GPDTM,W84,,00.0000,N,00.0000,E,,W84*41
$GPGLL,3239.5555,N,11928.6311,W,004347.00,A,A*72
$GPZDA,004349.00,16,03,2018,07,00*64
$GPDTM,W84,,00.0000,N,00.0000,E,,W84*41
$GPRMC,004348.00,A,3239.5568,N,11928.6311,W,4.2,14.4,160318,11.9,E,A,S*53
$GPVTG,14.4,T,2.5,M,4.221,N,7.817,K,A*19
$GPGBS,004348.00,1.88,1.73,1.97,,5.00,0.00,12.50,1,1*5C
$GPDTM,W84,,00.0000,N,00.0000,E,,W84*41
$GPGGA,004348.00,3239.5568,N,11928.6311,W,1,11,0.8,7.4,M,-36.8,M,,*5D
$GPDTM,W84,,00.0000,N,00.0000,E,,W84*41
$GPGLL,3239.5568,N,11928.6311,W,004348.00,A,A*73
$GPZDA,004350.00,16,03,2018,07,00*6C
$GPDTM,W84,,00.0000,N,00.0000,E,,W84*41
$GPRMC,004349.00,A,3239.5579,N,11928.6313,W,4.1,13.0,160318,11.9,E,A,S*50
$GPVTG,13.0,T,1.1,M,4.057,N,7.514,K,A*10
$GPGBS,004349.00,1.83,1.73,1.97,,5.00,0.00,12.50,1,1*56
$GPDTM,W84,,00.0000,N,00.0000,E,,W84*41
$GPGGA,004349.00,3239.5579,N,11928.6313,W,1,11,0.8,7.5,M,-36.8,M,,*5F
$GPDTM,W84,,00.0000,N,00.0000,E,,W84*41
$GPGLL,3239.5579,N,11928.6313,W,004349.00,A,A*70
$GPZDA,004351.00,16,03,2018,07,00*6D
$GPDTM,W84,,00.0000,N,00.0000,E,,W84*41
$GPRMC,004350.00,A,3239.5587,N,11928.6310,W,4.0,13.0,160318,11.9,E,A,S*5B
$GPVTG,13.0,T,1.1,M,4.011,N,7.428,K,A*1C
$GPGBS,004350.00,1.83,1.69,1.92,,5.00,0.00,12.50,1,1*50
$GPDTM,W84,,00.0000,N,00.0000,E,,W84*41
$GPGGA,004350.00,3239.5587,N,11928.6310,W,1,11,0.8,8.3,M,-36.8,M,,*5C
$GPDTM,W84,,00.0000,N,00.0000,E,,W84*41
$GPGLL,3239.5587,N,11928.6310,W,004350.00,A,A*7A
$GPZDA,004352.00,16,03,2018,07,00*6E
$GPDTM,W84,,00.0000,N,00.0000,E,,W84*41
$GPRMC,004351.00,A,3239.5597,N,11928.6299,W,4.2,19.4,160318,11.9,E,A,S*57
$GPVTG,19.4,T,7.5,M,4.233,N,7.840,K,A*10
$GPGBS,004351.00,1.78,1.55,3.56,,5.00,0.00,12.50,1,1*50
$GPDTM,W84,,00.0000,N,00.0000,E,,W84*41
$GPGGA,004351.00,3239.5597,N,11928.6299,W,1,11,0.8,8.7,M,-36.8,M,,*58
$GPDTM,W84,,00.0000,N,00.0000,E,,W84*41
$GPGLL,3239.5597,N,11928.6299,W,004351.00,A,A*7A
$GPZDA,004353.00,16,03,2018,07,00*6F
$GPDTM,W84,,00.0000,N,00.0000,E,,W84*41
$GPRMC,004352.00,A,3239.5610,N,11928.6293,W,4.3,15.1,160318,11.9,E,A,S*5A
$GPVTG,15.1,T,3.2,M,4.336,N,8.030,K,A*1E
$GPGBS,004352.00,1.83,1.64,3.14,,5.00,0.00,12.50,1,1*53
$GPDTM,W84,,00.0000,N,00.0000,E,,W84*41
$GPGGA,004352.00,3239.5610,N,11928.6293,W,1,11,0.8,7.6,M,-36.8,M,,*53
$GPDTM,W84,,00.0000,N,00.0000,E,,W84*41
$GPGLL,3239.5610,N,11928.6293,W,004352.00,A,A*7F
$GPZDA,004354.00,16,03,2018,07,00*68
$GPDTM,W84,,00.0000,N,00.0000,E,,W84*41
$GPRMC,004353.00,A,3239.5623,N,11928.6298,W,4.2,6.2,160318,11.9,E,A,S*60
$GPVTG,6.2,T,354.3,M,4.185,N,7.751,K,A*2A
$GPGBS,004353.00,1.88,1.73,2.81,,5.00,0.00,12.50,1,1*52
$GPDTM,W84,,00.0000,N,00.0000,E,,W84*41
$GPGGA,004353.00,3239.5623,N,11928.6298,W,1,11,0.8,5.5,M,-36.8,M,,*58
$GPDTM,W84,,00.0000,N,00.0000,E,,W84*41
$GPGLL,3239.5623,N,11928.6298,W,004353.00,A,A*75
$GPZDA,004355.00,16,03,2018,07,00*69
$GPDTM,W84,,00.0000,N,00.0000,E,,W84*41
$GPRMC,004354.00,A,3239.5632,N,11928.6304,W,3.9,1.3,160318,11.9,E,A,S*69
$GPVTG,1.3,T,349.4,M,3.932,N,7.282,K,A*2F
$GPGBS,004354.00,1.88,1.73,2.77,,5.00,0.00,12.50,1,1*5C
$GPDTM,W84,,00.0000,N,00.0000,E,,W84*41
$GPGGA,004354.00,3239.5632,N,11928.6304,W,1,11,0.8,4.9,M,-36.8,M,,*56
$GPDTM,W84,,00.0000,N,00.0000,E,,W84*41
$GPGLL,3239.5632,N,11928.6304,W,004354.00,A,A*76
$GPZDA,004356.00,16,03,2018,07,00*6A
$GPDTM,W84,,00.0000,N,00.0000,E,,W84*41
$GPRMC,004355.00,A,3239.5642,N,11928.6301,W,4.0,8.4,160318,11.9,E,A,S*6A
$GPVTG,8.4,T,356.5,M,4.005,N,7.417,K,A*2E
$GPGBS,004355.00,1.88,1.73,2.58,,5.00,0.00,12.50,1,1*50
$GPDTM,W84,,00.0000,N,00.0000,E,,W84*41
$GPGGA,004355.00,3239.5642,N,11928.6301,W,1,11,0.8,4.4,M,-36.8,M,,*58
$GPDTM,W84,,00.0000,N,00.0000,E,,W84*41
$GPGLL,3239.5642,N,11928.6301,W,004355.00,A,A*75
$GPZDA,004357.00,16,03,2018,07,00*6B
$GPDTM,W84,,00.0000,N,00.0000,E,,W84*41
$GPRMC,004356.00,A,3239.5654,N,11928.6291,W,4.2,13.5,160318,11.9,E,A,S*5F
$GPVTG,13.5,T,1.6,M,4.196,N,7.771,K,A*1F
$GPGBS,004356.00,1.83,1.73,2.39,,5.00,0.00,12.50,1,1*5F
$GPDTM,W84,,00.0000,N,00.0000,E,,W84*41
$GPGGA,004356.00,3239.5654,N,11928.6291,W,1,11,0.8,4.7,M,-36.8,M,,*57
$GPDTM,W84,,00.0000,N,00.0000,E,,W84*41
$GPGLL,3239.5654,N,11928.6291,W,004356.00,A,A*79
$GPZDA,004358.00,16,03,2018,07,00*64
$GPDTM,W84,,00.0000,N,00.0000,E,,W84*41
$GPRMC,004357.00,A,3239.5666,N,11928.6286,W,4.1,15.5,160318,11.9,E,A,S*5C
$GPVTG,15.5,T,3.6,M,4.093,N,7.580,K,A*13
$GPGBS,004357.00,1.78,1.69,2.30,,5.00,0.00,12.50,1,1*58
$GPDTM,W84,,00.0000,N,00.0000,E,,W84*41
$GPGGA,004357.00,3239.5666,N,11928.6286,W,1,11,0.8,5.7,M,-36.8,M,,*50
$GPDTM,W84,,00.0000,N,00.0000,E,,W84*41
$GPGLL,3239.5666,N,11928.6286,W,004357.00,A,A*7F
$GPZDA,004359.00,16,03,2018,07,00*65
$GPDTM,W84,,00.0000,N,00.0000,E,,W84*41
$GPRMC,004358.00,A,3239.5676,N,11928.6288,W,4.0,15.9,160318,11.9,E,A,S*51
$GPVTG,15.9,T,4.0,M,4.019,N,7.443,K,A*12
$GPGBS,004358.00,1.78,1.69,2.20,,5.00,0.00,12.50,1,1*56
$GPDTM,W84,,00.0000,N,00.0000,E,,W84*41
$GPGGA,004358.00,3239.5676,N,11928.6288,W,1,11,0.8,6.2,M,-36.8,M,,*56
$GPDTM,W84,,00.0000,N,00.0000,E,,W84*41
$GPGLL,3239.5676,N,11928.6288,W,004358.00,A,A*7F
$GPZDA,004400.00,16,03,2018,07,00*6E
$GPDTM,W84,,00.0000,N,00.0000,E,,W84*41
$GPRMC,004359.00,A,3239.5687,N,11928.6290,W,4.1,13.8,160318,11.9,E,A,S*51
$GPVTG,13.8,T,1.9,M,4.065,N,7.528,K,A*1E
$GPGBS,004359.00,1.83,1.69,2.16,,5.00,0.00,12.50,1,1*56
$GPDTM,W84,,00.0000,N,00.0000,E,,W84*41
$GPGGA,004359.00,3239.5687,N,11928.6290,W,1,11,0.8,6.3,M,-36.8,M,,*51
$GPDTM,W84,,00.0000,N,00.0000,E,,W84*41
$GPGLL,3239.5687,N,11928.6290,W,004359.00,A,A*79
$GPZDA,004401.00,16,03,2018,07,00*6F
$GPDTM,W84,,00.0000,N,00.0000,E,,W84*41
$GPRMC,004400.00,A,3239.5699,N,11928.6288,W,4.1,12.6,160318,11.9,E,A,S*53
$GPVTG,12.6,T,0.7,M,4.135,N,7.658,K,A*1E
$GPGBS,004400.00,1.88,1.78,2.11,,5.00,0.00,12.50,1,1*51
$GPDTM,W84,,00.0000,N,00.0000,E,,W84*41
$GPGGA,004400.00,3239.5699,N,11928.6288,W,1,11,0.8,5.9,M,-36.8,M,,*55
$GPDTM,W84,,00.0000,N,00.0000,E,,W84*41
$GPGLL,3239.5699,N,11928.6288,W,004400.00,A,A*74
$GPZDA,004402.00,16,03,2018,07,00*6C
$GPDTM,W84,,00.0000,N,00.0000,E,,W84*41
$GPRMC,004401.00,A,3239.5711,N,11928.6285,W,4.1,12.1,160318,11.9,E,A,S*59
$GPVTG,12.1,T,0.2,M,4.136,N,7.660,K,A*14
